City_ID,City,Cloudiness,Country,Date,Humidity,Lat,Lng,Max Temp,Wind Speed
0,east london,0,ZA,1525644315,100,-33.02,27.91,73.55,10.76
1,codrington,92,AU,1525644315,78,-28.95,153.24,63.74,3.94
2,big bend,0,SZ,1525644316,78,-26.79,31.94,51.95,2.15
3,thompson,75,CA,1525640400,32,55.74,-97.86,68.0,11.41
4,mataura,92,NZ,1525644316,77,-46.19,168.86,53.03,24.96
5,busselton,0,AU,1525644316,100,-33.64,115.35,56.9,4.72
6,ushuaia,0,AR,1525640400,75,-54.81,-68.31,44.6,13.44
7,arica,0,CL,1525640400,64,-18.48,-70.32,69.8,10.29
8,mar del plata,0,AR,1525644317,71,-46.43,-67.52,54.92,3.27
9,labuhan,8,ID,1525644317,94,-2.54,115.51,72.83,2.71
10,ribeira grande,0,PT,1525644317,95,38.52,-28.7,65.9,9.19
11,airai,0,TL,1525644317,85,-8.93,125.41,61.22,2.04
12,nakonde,0,ZM,1525644318,86,-9.33,32.75,64.28,10.42
13,butaritari,8,KI,1525644318,100,3.07,172.79,83.27,7.74
14,jamestown,44,AU,1525644128,55,-33.21,138.6,51.41,12.55
15,port alfred,8,ZA,1525644318,96,-33.59,26.89,68.15,10.65
16,evensk,12,RU,1525644319,92,61.92,159.24,30.98,2.04
17,husavik,0,CA,1525644319,74,50.56,-96.99,62.12,5.73
18,luderitz,0,NA,1525644320,70,-26.65,15.16,65.72,9.42
19,lebu,64,ET,1525644320,66,8.96,38.73,54.29,5.61
20,tiznit,92,MA,1525644181,100,29.7,-9.73,58.07,8.08
21,bubaque,0,GW,1525640400,74,11.28,-15.83,78.8,12.75
22,comodoro rivadavia,0,AR,1525640400,76,-45.87,-67.48,51.8,2.24
23,vieques,40,PR,1525640160,65,18.43,-65.83,82.4,16.11
24,port dover,90,CA,1525640400,58,42.79,-80.2,57.2,13.87
25,hithadhoo,80,MV,1525644324,100,-0.6,73.08,80.12,3.38
26,rikitea,92,PF,1525644324,100,-23.12,-134.97,77.96,9.42
27,hermanus,76,ZA,1525644324,85,-34.42,19.24,55.28,2.59
28,puerto ayora,75,EC,1525640400,70,-0.74,-90.35,84.2,18.34
29,coquimbo,0,CL,1525640400,72,-29.95,-71.34,62.6,3.36
30,atuona,56,PF,1525644325,99,-9.8,-139.03,81.83,11.65
31,brae,92,GB,1525641600,93,60.4,-1.35,50.0,17.22
32,kapaa,40,US,1525640160,65,22.08,-159.32,78.8,17.22
33,bredasdorp,80,ZA,1525644325,98,-34.53,20.04,61.85,14.12
34,gizo,20,IL,1525643400,29,31.8,34.94,87.8,16.11
35,zavodouspenskoye,75,RU,1525642200,86,56.86,65.02,41.0,4.47
36,yellowknife,75,CA,1525640400,46,62.45,-114.38,60.8,24.16
37,fortuna,0,ES,1525642200,82,38.18,-1.13,64.4,2.24
38,albany,90,US,1525643640,77,42.65,-73.75,60.8,3.36
39,tabou,64,CI,1525644327,99,4.42,-7.36,83.45,7.4
40,hilo,40,US,1525640160,65,19.71,-155.08,82.4,8.05
41,hobart,75,AU,1525642200,62,-42.88,147.33,57.2,13.87
42,cape town,0,ZA,1525640400,87,-33.93,18.42,60.8,5.82
43,canutama,44,BR,1525644328,75,-6.53,-64.38,84.08,3.83
44,fort nelson,40,CA,1525640400,36,58.81,-122.69,71.6,16.11
45,cabo san lucas,20,MX,1525639320,35,22.89,-109.91,87.8,3.71
46,bilma,0,NE,1525644328,16,18.69,12.92,78.86,6.62
47,dickinson,1,US,1525640160,21,46.88,-102.79,78.8,4.7
48,faanui,44,PF,1525644329,100,-16.48,-151.75,81.74,13.67
49,nyimba,88,ZM,1525644329,97,-14.56,30.81,64.28,2.93
50,flin flon,20,CA,1525640400,22,54.77,-101.88,77.0,12.75
51,rantepao,48,ID,1525644329,100,-2.97,119.9,64.82,1.25
52,canmore,75,CA,1525640400,26,51.09,-115.35,69.8,4.7
53,saint-augustin,0,FR,1525642200,82,44.83,-0.61,64.4,4.7
54,ugoofaaru,56,MV,1525644330,100,5.67,73.0,84.35,9.42
55,qaanaaq,8,GL,1525644330,91,77.48,-69.36,6.95,3.71
56,kharp,48,RU,1525644330,91,66.82,65.8,19.28,5.95
57,santa maria,75,BR,1525640400,83,-29.69,-53.81,73.4,11.41
58,mount gambier,76,AU,1525644332,64,-37.83,140.78,59.33,11.77
59,svetlogorsk,75,RU,1525640400,29,53.14,59.15,51.8,13.42
60,sitka,44,US,1525644332,24,37.17,-99.65,90.11,4.83
61,puerto baquerizo moreno,75,EC,1525640400,66,-0.9,-89.6,86.0,12.75
62,delemont,0,CH,1525643400,59,47.36,7.34,62.6,5.82
63,tuktoyaktuk,90,CA,1525640400,72,69.44,-133.03,14.0,3.36
64,rocha,44,UY,1525644333,78,-34.48,-54.34,66.35,9.98
65,thunder bay,75,CA,1525640400,33,48.41,-89.26,57.2,12.75
66,presidencia roque saenz pena,88,AR,1525644333,86,-26.79,-60.44,74.09,4.61
67,roswell,1,US,1525643460,7,33.39,-104.52,89.6,14.99
68,chifeng,0,CN,1525644333,43,42.27,118.96,39.8,3.15
69,san jose,8,PH,1525644334,99,15.79,120.99,69.32,1.92
70,bonthe,20,SL,1525644334,84,7.53,-12.5,80.93,3.94
71,rangapara,44,IN,1525644335,90,26.82,92.69,59.87,1.7
72,victoria,75,BN,1525642200,94,5.28,115.24,80.6,1.12
73,chokurdakh,92,RU,1525644335,94,70.62,147.9,21.8,9.98
74,saint george,75,GR,1525639800,88,39.45,22.34,62.6,2.24
75,saint-philippe,1,CA,1525643700,45,45.36,-73.48,64.4,6.93
76,izumo,75,JP,1525642200,93,35.37,132.75,62.6,13.11
77,nador,20,MA,1525642200,88,35.17,-2.93,62.6,2.24
78,paamiut,8,GL,1525644338,100,61.99,-49.67,30.8,23.4
79,port elizabeth,75,US,1525643640,52,39.31,-74.98,68.0,5.82
80,suntar,0,RU,1525644338,95,62.16,117.65,37.73,5.06
81,hornslet,0,DK,1525641600,76,56.32,10.32,51.8,2.24
82,vaini,44,IN,1525644339,91,15.34,74.49,74.72,4.05
83,bluff,92,AU,1525644339,89,-23.58,149.07,64.46,11.54
84,meulaboh,20,ID,1525644339,100,4.14,96.13,78.5,3.83
85,dingle,24,PH,1525644339,95,11.0,122.67,73.1,3.71
86,kodiak,1,US,1525639980,23,39.95,-94.76,87.8,9.17
87,new norfolk,75,AU,1525642200,62,-42.78,147.06,57.2,13.87
88,padang,56,ID,1525644340,100,-0.92,100.36,84.53,6.96
89,tabas,20,IR,1525644340,52,33.6,56.92,61.94,2.59
90,chuy,0,UY,1525644263,85,-33.69,-53.46,66.98,11.99
91,cherskiy,64,RU,1525644341,84,68.75,161.3,21.08,2.71
92,srednekolymsk,88,RU,1525644341,68,67.46,153.71,35.21,3.15
93,punta arenas,75,CL,1525640400,85,-53.16,-70.91,46.4,10.29
94,kampot,20,KH,1525644341,95,10.62,104.18,74.36,2.93
95,vylkove,12,UA,1525644341,43,45.4,29.58,72.11,16.02
96,upernavik,64,GL,1525644342,100,72.79,-56.15,13.34,2.59
97,ust-kuyga,48,RU,1525644342,85,70.0,135.55,18.11,7.18
98,kahului,75,US,1525640160,69,20.89,-156.47,78.8,16.11
99,kaitangata,12,NZ,1525644342,72,-46.28,169.85,53.12,31.34
100,linjiang,0,CN,1525644342,56,41.81,126.91,38.0,4.94
101,san rafael,92,AR,1525644343,87,-34.61,-68.33,59.15,4.16
102,lorengau,36,PG,1525644343,100,-2.02,147.27,82.01,7.4
103,broome,0,GB,1525641600,71,52.47,1.45,60.8,1.12
104,saskylakh,0,RU,1525644344,66,71.97,114.09,5.78,4.72
105,matagami,8,NG,1525644344,93,9.67,8.4,70.67,3.49
106,cockburn town,80,TC,1525644344,96,21.46,-71.14,79.85,24.85
107,hambantota,56,LK,1525644344,100,6.12,81.12,81.38,7.52
108,mokhsogollokh,0,RU,1525644344,87,61.4,128.95,42.68,2.37
109,tiksi,0,RU,1525644345,73,71.64,128.87,8.3,2.93
110,strezhevoy,0,RU,1525642200,100,60.73,77.6,21.2,2.24
111,cidreira,76,BR,1525644345,83,-30.17,-50.22,70.67,12.77
112,sola,40,NO,1525641600,53,58.89,5.65,51.8,8.05
113,damaturu,0,NG,1525644345,42,11.75,11.96,83.99,4.61
114,oktyabrskoye,44,RU,1525644345,67,56.73,85.44,16.31,2.48
115,mao,75,DO,1525640400,83,19.55,-71.08,80.6,18.34
116,arraial do cabo,0,BR,1525640400,83,-22.97,-42.02,75.2,6.93
117,peruibe,68,BR,1525644346,100,-24.32,-47.0,74.54,9.31
118,kahta,0,TR,1525641600,59,37.78,38.62,66.2,5.82
119,torbay,40,CA,1525640400,53,47.66,-52.73,51.8,23.04
120,ambulu,48,ID,1525644347,100,-8.35,113.61,77.33,7.63
121,marsh harbour,20,BS,1525644347,100,26.54,-77.06,77.06,9.53
122,los andes,40,CL,1525640400,43,-32.83,-70.6,69.8,10.29
123,port-gentil,75,GA,1525640400,83,-0.72,8.78,82.4,6.93
124,lagoa santa,75,BR,1525640400,68,-19.64,-43.9,75.2,5.82
125,saldanha,8,PT,1525644348,82,41.42,-6.55,59.15,2.37
126,georgetown,40,GY,1525640400,74,6.8,-58.16,82.4,13.87
127,leh,92,IN,1525644348,94,34.16,77.58,19.82,1.59
128,berlevag,40,NO,1525639800,69,70.86,29.09,39.2,25.28
129,dipalpur,68,PK,1525644348,50,30.67,73.65,77.33,11.99
130,luang prabang,48,LA,1525644349,86,19.89,102.14,73.64,2.93
131,khatanga,8,RU,1525644349,57,71.98,102.47,2.9,8.97
132,nicoya,40,CR,1525640400,49,10.15,-85.45,93.2,12.75
133,muros,0,ES,1525642200,63,42.77,-9.06,62.6,2.24
134,poum,88,MK,1525644349,98,41.28,20.71,54.29,1.81
135,sao joao del rei,0,BR,1525640400,68,-21.14,-44.26,66.2,2.24
136,namibe,0,AO,1525644350,100,-15.19,12.15,75.26,11.88
137,norman wells,20,CA,1525640400,46,65.28,-126.83,50.0,17.22
138,lahijan,0,IR,1525640400,93,37.21,50.0,64.4,4.7
139,tres palos,75,MX,1525639560,66,16.83,-99.78,86.0,8.05
140,kimbe,32,PG,1525644350,100,-5.56,150.15,77.87,5.61
141,hualmay,24,PE,1525644351,85,-11.1,-77.61,70.58,4.72
142,yarmouth,0,GB,1525641600,71,50.71,-1.5,64.4,1.12
143,camacupa,0,AO,1525644351,67,-12.02,17.48,61.67,4.16
144,kavaratti,20,IN,1525644193,100,10.57,72.64,85.16,5.95
145,mugumu,56,TZ,1525644352,100,-1.84,34.67,59.6,2.59
146,mezhdurechensk,8,RU,1525644353,83,53.69,88.07,26.39,4.27
147,castro,100,CL,1525644353,85,-42.48,-73.76,56.0,2.37
148,talcahuano,90,CL,1525640400,100,-36.72,-73.12,57.2,8.05
149,ponta do sol,8,BR,1525644354,56,-20.63,-46.0,74.81,2.93
150,daru,88,SL,1525644355,81,7.99,-10.85,77.87,5.61
151,araouane,8,ML,1525644355,20,18.9,-3.53,78.77,4.61
152,roald,75,NO,1525641600,100,62.58,6.12,50.0,4.7
153,esperance,20,TT,1525640400,83,10.24,-61.45,78.8,9.17
154,orito,56,CO,1525644355,94,0.67,-76.88,75.17,2.71
155,emerald,92,AU,1525644356,91,-23.53,148.16,64.37,11.43
156,amurzet,88,CN,1525644356,83,47.69,131.09,42.77,13.67
157,palora,92,EC,1525644356,100,-1.7,-77.97,63.11,2.26
158,cadiz,1,US,1525643580,59,40.27,-81.0,75.2,10.29
159,erzin,75,TR,1525641600,88,36.95,36.2,68.0,9.17
160,bajil,0,ES,1525644357,68,38.23,-2.07,56.36,4.61
161,tasiilaq,0,GL,1525639800,53,65.61,-37.64,24.8,16.11
162,andros town,75,BS,1525640400,70,24.73,-77.79,84.2,10.29
163,zhanakorgan,0,KZ,1525644357,49,43.91,67.25,48.35,11.21
164,lagoa,0,PT,1525642200,68,37.14,-8.45,66.2,3.36
165,sosenskiy,80,RU,1525644358,93,54.06,35.96,56.18,14.67
166,namatanai,44,PG,1525644358,100,-3.66,152.44,80.39,12.55
167,avarua,40,CK,1525640400,74,-21.21,-159.78,82.4,13.87
168,hanting,92,CN,1525644358,100,30.92,118.55,60.5,8.19
169,panguipulli,0,CL,1525640400,87,-39.64,-72.33,60.8,2.37
170,high level,20,CA,1525640400,36,58.52,-117.13,73.4,10.29
171,ayan,92,TR,1525644359,100,40.67,33.6,49.79,2.26
172,buala,100,SB,1525644359,87,-8.15,159.59,83.0,9.19
173,natchez,1,US,1525640160,39,31.56,-91.4,82.4,8.05
174,nichinan,75,JP,1525641000,78,31.65,131.31,77.0,9.17
175,pevek,0,RU,1525644359,91,69.7,170.27,14.24,3.15
176,provideniya,75,RU,1525642200,73,64.42,-173.23,26.6,4.47
177,ustka,0,PL,1525644360,91,54.58,16.86,46.37,1.36
178,teguldet,0,RU,1525644361,68,57.31,88.17,9.83,2.37
179,hasaki,75,JP,1525642200,72,35.73,140.83,64.4,14.99
180,gusau,8,NG,1525644361,51,12.17,6.66,86.15,10.65
181,nizhnyaya tavda,92,RU,1525644361,65,57.67,66.17,41.78,11.1
182,krasnaya gora,90,RU,1525640400,82,53.01,31.6,55.4,13.42
183,nanortalik,68,GL,1525644362,100,60.14,-45.24,31.25,5.06
184,havoysund,75,NO,1525641600,75,71.0,24.66,41.0,31.09
185,mahebourg,20,MU,1525644000,78,-20.41,57.7,75.2,6.93
186,hamilton,75,BM,1525640100,83,32.3,-64.78,73.4,14.99
187,kodinsk,0,RU,1525644363,64,58.6,99.18,25.58,4.94
188,tual,64,ID,1525644363,100,-5.67,132.75,82.01,12.77
189,mnogovershinnyy,0,RU,1525644363,87,53.94,139.92,27.11,0.58
190,banda aceh,20,ID,1525644363,100,5.56,95.32,73.46,2.26
191,dikson,0,RU,1525644363,68,73.51,80.55,2.54,6.4
192,pangnirtung,32,CA,1525644363,100,66.15,-65.72,10.28,6.96
193,severo-kurilsk,0,RU,1525644364,98,50.68,156.12,34.67,6.4
194,sao filipe,0,CV,1525644364,97,14.9,-24.5,70.58,17.58
195,ola,0,RU,1525642200,69,59.58,151.3,39.2,8.95
196,puro,24,PH,1525644364,95,13.13,123.76,74.45,2.15
197,zhaotong,68,CN,1525644364,99,27.34,103.71,42.68,1.36
198,seoul,0,KR,1525642200,72,37.57,126.98,59.0,6.93
199,kirakira,92,SB,1525644365,100,-10.46,161.92,82.37,14.67
200,bethel,75,US,1525641480,64,60.79,-161.76,35.6,9.17
201,flinders,0,AU,1525644365,92,-34.58,150.85,49.43,5.17
202,savinka,0,RU,1525644365,42,50.08,47.1,60.41,10.76
203,saint pete beach,1,US,1525642500,74,27.73,-82.74,84.2,4.7
204,tautira,75,PF,1525642200,66,-17.73,-149.15,84.2,8.05
205,tilichiki,20,RU,1525644366,91,60.47,166.1,24.23,4.05
206,praia da vitoria,20,PT,1525640400,77,38.73,-27.07,64.4,8.3
207,longyearbyen,75,NO,1525639800,86,78.22,15.63,33.8,14.99
208,jiayuguan,64,CN,1525644367,44,39.77,98.29,41.15,4.72
209,gravdal,0,NO,1525641600,53,59.79,5.78,51.8,16.11
210,price,1,US,1525643580,11,39.6,-110.81,78.8,14.99
211,guerrero negro,0,MX,1525644368,36,27.97,-114.04,83.45,6.62
212,winnemucca,20,US,1525640160,12,40.97,-117.74,80.6,18.34
213,grindavik,75,IS,1525642200,60,63.84,-22.43,41.0,21.92
214,teknaf,92,BD,1525644369,94,20.86,92.31,79.31,2.93
215,nurota,0,UZ,1525640400,30,40.56,65.69,57.2,6.93
216,bathsheba,40,BB,1525640400,78,13.22,-59.52,80.6,17.22
217,kholtoson,56,RU,1525644370,66,50.3,103.31,41.33,4.27
218,bethalto,1,US,1525642500,34,38.91,-90.04,84.2,11.41
219,narsaq,20,GL,1525639800,25,60.91,-46.05,41.0,9.17
220,abriaqui,90,CO,1525640400,73,6.63,-76.06,71.6,2.24
221,manicore,68,BR,1525644371,95,-5.81,-61.3,78.32,2.37
222,dawlatabad,0,AF,1525644371,27,36.41,64.91,62.48,8.3
223,jiangyou,8,CN,1525644371,87,31.78,104.73,51.86,2.48
224,itarema,92,BR,1525644371,98,-2.92,-39.92,76.61,5.84
225,krasnyy chikoy,48,RU,1525644372,70,50.36,108.75,39.26,2.59
226,bandar-e lengeh,0,IR,1525640400,61,26.56,54.88,82.4,4.7
227,richards bay,0,ZA,1525644372,94,-28.77,32.06,57.71,1.92
228,kupang,0,ID,1525644372,87,-10.16,123.6,81.56,16.02
229,te anau,64,NZ,1525644372,91,-45.41,167.72,46.91,12.44
230,belaya gora,88,RU,1525644372,99,68.54,146.19,29.9,9.64
231,verkhoyansk,8,RU,1525644373,74,67.55,133.39,23.51,3.94
232,kasempa,8,ZM,1525644373,92,-13.46,25.83,61.04,5.61
233,portland,90,US,1525643760,49,45.52,-122.67,71.6,6.93
234,muzhi,88,RU,1525644373,92,65.4,64.7,26.93,9.31
235,carnarvon,0,ZA,1525644373,38,-30.97,22.13,48.8,6.17
236,awbari,0,LY,1525644373,18,26.59,12.77,73.82,9.19
237,iqaluit,5,CA,1525640400,66,63.75,-68.52,10.4,17.22
238,juneau,75,US,1525640160,81,58.3,-134.42,53.6,9.17
239,along,24,IN,1525644374,95,28.17,94.8,58.88,1.92
240,poya,44,NC,1525644374,100,-21.35,165.16,73.28,15.46
241,gorgan,0,IR,1525640400,88,36.84,54.43,64.4,1.81
242,goderich,100,CA,1525644374,98,43.74,-81.71,50.78,15.79
243,san lorenzo,40,PY,1525640400,69,-25.34,-57.51,80.6,3.36
244,tuatapere,76,NZ,1525644376,100,-46.13,167.69,52.4,24.74
245,lovington,5,US,1525643400,9,32.94,-103.35,87.8,8.05
246,beloha,0,MG,1525644376,87,-25.17,45.06,62.93,2.71
247,surt,56,LY,1525644376,82,31.21,16.59,66.8,17.36
248,south lake tahoe,1,US,1525643700,16,38.93,-119.98,78.8,16.11
249,bandrele,48,YT,1525644000,88,-12.91,45.19,78.8,6.93
250,panalingaan,0,PH,1525644377,100,8.78,117.42,78.05,3.04
251,honningsvag,75,NO,1525641600,75,70.98,25.97,41.0,31.09
252,alihe,0,CN,1525644377,91,50.57,123.73,30.44,3.04
253,giyani,0,ZA,1525644377,83,-23.32,30.73,60.23,2.71
254,point fortin,20,TT,1525640400,83,10.16,-61.68,78.8,9.17
255,nouadhibou,0,MR,1525640400,82,20.93,-17.03,66.2,13.87
256,sabang,0,PH,1525644378,96,13.72,123.58,77.33,4.27
257,jand,64,PK,1525644378,95,33.43,72.02,61.13,3.6
258,rawson,44,AR,1525644378,61,-43.3,-65.11,67.07,13.67
259,lavrentiya,92,RU,1525644378,100,65.58,-170.99,26.12,16.46
260,naze,40,NG,1525640400,78,5.43,7.07,82.4,2.24
261,kokoda,48,PG,1525644379,94,-8.88,147.74,62.03,1.81
262,nikolskoye,0,RU,1525642200,66,59.7,30.79,48.2,2.24
263,kuruman,0,ZA,1525644379,56,-27.46,23.43,46.1,4.38
264,cimislia,0,MD,1525642200,56,46.52,28.78,68.0,13.87
265,westport,92,IE,1525644379,85,53.8,-9.52,52.4,4.94
266,neryungri,0,RU,1525644380,75,56.66,124.71,27.38,3.38
267,sibolga,64,ID,1525644380,100,1.74,98.78,69.41,1.7
268,nuuk,20,GL,1525639800,68,64.17,-51.74,24.8,13.87
269,cocobeach,20,GA,1525644000,83,1.01,9.58,84.2,9.17
270,karur,24,IN,1525644380,88,10.96,78.08,77.06,5.61
271,oudtshoorn,0,ZA,1525640400,93,-33.59,22.2,57.2,2.24
272,bogande,12,BF,1525644381,37,12.97,-0.14,87.41,7.4
273,hami,32,CN,1525644381,43,42.84,93.51,56.9,4.61
274,stettler,0,CA,1525644381,31,52.32,-112.71,76.25,8.63
275,truro,0,GB,1525639800,93,50.26,-5.05,50.0,10.29
276,igarka,76,RU,1525644382,83,67.47,86.57,24.5,13.33
277,bodden town,20,KY,1525640400,70,19.28,-81.25,84.2,10.29
278,atar,0,MR,1525644383,25,20.52,-13.05,78.5,5.73
279,kerrville,1,US,1525643700,25,30.05,-99.14,86.0,6.93
280,angoche,92,MZ,1525644383,100,-16.23,39.91,81.02,12.44
281,petropavlovsk-kamchatskiy,75,RU,1525642200,94,53.05,158.65,35.6,4.47
282,grand gaube,20,MU,1525644000,78,-20.01,57.66,75.2,6.93
283,medea,20,DZ,1525642200,93,36.27,2.77,57.2,3.36
284,elizabeth city,1,US,1525643760,73,36.3,-76.22,75.2,3.36
285,ust-tsilma,88,RU,1525644385,100,65.44,52.15,31.61,2.59
286,adrar,0,DZ,1525640400,20,27.87,-0.29,84.2,8.41
287,taoudenni,12,ML,1525644385,20,22.68,-3.98,77.69,6.62
288,salalah,40,OM,1525639800,88,17.01,54.1,82.4,7.74
289,pyapon,20,MM,1525644386,94,16.29,95.68,79.85,6.29
290,ilebo,56,CD,1525644386,95,-4.33,20.59,73.28,2.71
291,salekhard,44,RU,1525644386,95,66.54,66.62,18.2,6.62
292,yeppoon,90,AU,1525642200,68,-23.13,150.74,69.8,9.17
293,oranjestad,40,AW,1525640400,79,12.52,-70.03,84.2,23.04
294,mundo nuevo,90,CL,1525640400,93,-32.72,-71.41,55.4,10.29
295,kelvington,0,CA,1525644387,64,52.16,-103.52,71.21,11.21
296,invermere,64,CA,1525644387,52,50.51,-116.03,58.07,1.7
297,kaspiyskiy,80,RU,1525644387,52,45.39,47.37,74.72,21.5
298,tsabong,0,BW,1525644388,40,-26.02,22.4,50.78,2.93
299,mogadishu,68,SO,1525644388,100,2.04,45.34,78.68,4.94
300,kutum,0,SD,1525644388,27,14.2,24.66,73.37,7.4
301,rincon,1,US,1525642500,30,32.3,-81.24,87.8,12.75
302,turkmenabat,0,TM,1525640400,18,39.09,63.58,60.8,11.41
303,waipawa,0,NZ,1525644388,54,-39.94,176.59,53.39,9.64
304,broken arrow,1,US,1525643580,25,36.05,-95.79,89.6,6.93
305,barrow,0,AR,1525644389,74,-38.31,-60.23,66.26,8.86
306,mersing,0,MY,1525644389,97,2.43,103.84,77.87,3.27
307,bitung,20,ID,1525642200,94,1.44,125.19,73.4,1.12
308,prado,0,BR,1525644389,96,-17.34,-39.22,79.58,12.21
309,nossa senhora da gloria,88,BR,1525644390,83,-10.22,-37.42,76.07,7.96
310,nuevitas,40,CU,1525639920,61,21.55,-77.27,82.4,13.87
311,tessalit,0,ML,1525644390,19,20.2,1.01,73.37,4.94
312,jalu,0,LY,1525644390,36,29.03,21.55,67.07,3.27
313,marienburg,0,DE,1525641600,67,52.12,9.98,62.6,5.82
314,mercedes,88,UY,1525644391,76,-33.25,-58.03,72.29,13.78
315,santa cruz,1,US,1525642500,46,36.97,-122.03,73.4,12.75
316,sambava,48,MG,1525644392,100,-14.27,50.17,78.95,13.0
317,aldan,0,RU,1525644392,62,58.61,125.39,39.35,6.51
318,pangody,32,RU,1525644392,60,65.85,74.49,-2.24,8.41
319,gushikawa,20,JP,1525642200,83,26.35,127.87,75.2,12.75
320,miramar,40,CR,1525640400,61,10.09,-84.73,82.4,12.75
321,baykit,12,RU,1525644394,73,61.68,96.39,7.31,2.59
322,mahon,75,IE,1525642200,100,51.89,-8.4,48.2,4.7
323,kruisfontein,8,ZA,1525644396,91,-34.0,24.73,64.1,8.75
324,coihaique,75,CL,1525640400,75,-45.58,-72.07,50.0,2.24
325,parkes,0,AU,1525644396,89,-33.14,148.18,47.45,9.64
326,bamiantong,32,CN,1525644397,88,44.93,130.53,42.05,2.82
327,minot,20,US,1525640160,18,48.23,-101.3,80.6,11.41
328,sioux lookout,75,CA,1525640400,31,50.1,-91.92,62.6,8.05
329,touros,88,BR,1525644397,84,-5.2,-35.46,80.3,14.56
330,katangli,88,RU,1525644397,99,51.71,143.23,30.08,4.61
331,nandura,0,IN,1525644398,35,20.83,76.46,82.64,8.52
332,havelock,75,US,1525640280,78,34.88,-76.9,80.6,3.36
333,kolaras,0,IN,1525644399,29,25.22,77.61,76.97,9.42
334,maningrida,12,AU,1525644399,79,-12.05,134.23,76.7,13.78
335,mvuma,0,ZW,1525644401,63,-19.28,30.53,56.54,9.19
336,kununurra,0,AU,1525642200,77,-15.77,128.74,60.8,1.12
337,kalemie,12,CD,1525644402,100,-5.95,29.2,73.28,4.72
338,viedma,64,AR,1525644402,78,-40.81,-62.99,64.64,9.53
339,ploemeur,0,FR,1525642200,77,47.73,-3.43,64.4,5.82
340,hofn,0,IS,1525644403,95,64.25,-15.21,41.51,29.77
341,port lincoln,92,AU,1525644403,77,-34.72,135.86,63.65,27.98
342,lac-megantic,90,CA,1525642500,55,45.58,-70.88,62.6,4.7
343,apatity,64,RU,1525644403,97,67.57,33.4,38.72,7.85
344,kalmunai,76,LK,1525644404,100,7.42,81.82,77.24,4.94
345,vao,0,EE,1525644404,85,59.1,26.19,48.53,5.61
346,nelson bay,20,AU,1525642200,93,-32.72,152.14,51.8,6.93
347,vardo,90,US,1525643700,93,39.62,-77.74,60.8,4.7
348,guasdualito,75,VE,1525640400,100,7.24,-70.73,75.2,8.05
349,leningradskiy,56,RU,1525644406,100,69.38,178.42,15.68,11.43
350,sechura,88,PE,1525644406,70,-5.56,-80.82,77.51,10.42
351,san patricio,68,PY,1525644406,92,-26.98,-56.83,72.47,3.49
352,takoradi,48,GH,1525644407,100,4.89,-1.75,78.32,6.85
353,samoded,92,RU,1525644407,96,63.61,40.52,45.47,2.59
354,pisco,0,PE,1525640400,73,-13.71,-76.2,73.4,17.22
355,yurga,12,RU,1525644407,82,55.71,84.93,21.26,3.94
356,san cristobal,75,EC,1525640400,59,-0.39,-78.55,64.4,16.11
357,tokmak,80,UA,1525644408,30,47.26,35.7,74.81,11.43
358,sistranda,75,NO,1525639800,76,63.73,8.83,48.2,11.41
359,ustye,0,RU,1525644409,80,58.76,27.79,48.71,10.09
360,the valley,20,AI,1525640400,65,18.22,-63.06,82.4,16.11
361,nueva guinea,32,NI,1525644410,64,11.69,-84.46,87.68,3.6
362,bambous virieux,20,MU,1525644000,78,-20.34,57.76,75.2,6.93
363,ucluelet,75,CA,1525640400,55,48.94,-125.55,64.4,5.82
364,lieksa,24,FI,1525644411,79,63.32,30.02,51.23,6.96
365,itai,36,BR,1525644411,52,-23.42,-49.09,77.33,8.97
366,preobrazheniye,80,RU,1525644413,94,42.9,133.91,31.97,2.26
367,dunedin,0,NZ,1525644319,61,-45.87,170.5,53.21,21.5
368,manavgat,75,TR,1525641600,82,36.79,31.44,62.6,8.05
369,frydek-mistek,0,CZ,1525642200,66,49.68,18.35,53.6,6.93
370,samana,40,EC,1525640400,58,0.12,-76.97,87.8,3.36
371,harper,1,US,1525643700,25,30.3,-99.24,89.6,6.93
372,lingao,0,CN,1525644414,90,19.91,109.69,78.05,7.18
373,juan lacaze,68,UY,1525644415,65,-34.43,-57.44,72.65,10.42
374,nizhneangarsk,100,RU,1525644415,88,55.78,109.57,34.13,4.27
375,watertown,1,US,1525643580,22,44.9,-97.12,78.8,5.82
376,chicama,75,PE,1525640400,82,-7.84,-79.15,68.0,8.05
377,polovinnoye,48,RU,1525644418,56,54.79,65.99,42.32,15.35
378,isangel,68,VU,1525644419,100,-19.55,169.27,76.79,17.25
379,los llanos de aridane,75,ES,1525642200,63,28.66,-17.92,66.2,4.7
380,yurovka,32,RU,1525642200,93,45.11,37.42,60.8,6.71
381,boende,12,CD,1525644420,98,-0.28,20.88,71.39,2.15
382,indian head,0,CA,1525644420,27,50.53,-103.67,76.97,8.3
383,dhanbad,64,IN,1525644357,96,23.8,86.43,74.45,4.38
384,ambon,0,FR,1525642200,77,47.55,-2.56,68.0,4.7
385,skegness,0,GB,1525641600,87,53.14,0.34,62.6,9.53
386,half moon bay,1,US,1525642800,76,37.46,-122.43,69.8,14.99
387,ardakan,0,IR,1525640400,42,32.31,54.02,66.2,2.24
388,salta,90,AR,1525640400,82,-24.79,-65.41,69.8,6.93
389,begoro,64,GH,1525644421,93,6.38,-0.38,74.27,3.6
390,port blair,8,IN,1525644422,100,11.67,92.75,84.53,6.96
391,eyl,0,SO,1525644422,100,7.98,49.82,77.6,8.52
392,iskateley,0,RU,1525644422,61,67.68,53.15,16.94,2.71
393,ancud,92,CL,1525644422,93,-41.87,-73.83,55.28,2.59
394,helena,1,US,1525639980,31,46.59,-112.04,77.0,11.41
395,souillac,0,FR,1525642200,72,45.6,-0.6,66.2,3.36
396,kiruna,0,SE,1525641600,64,67.86,20.23,33.8,3.36
397,two rivers,1,US,1525643760,48,44.15,-87.57,64.4,6.93
398,garoua,0,CM,1525640400,59,9.31,13.39,89.6,6.93
399,anadyr,0,RU,1525642200,85,64.73,177.51,14.0,4.47
400,kavieng,92,PG,1525644424,100,-2.57,150.8,77.33,9.75
401,sancti spiritus,56,CU,1525644424,83,21.93,-79.44,80.84,3.49
402,gao,0,ML,1525644425,22,16.28,-0.04,78.05,3.27
403,ciudad bolivar,80,VE,1525644280,51,8.12,-63.55,88.85,15.68
404,ostrovnoy,92,RU,1525644425,90,68.05,39.51,35.75,12.66
405,kyaiklat,40,MM,1525642200,74,16.44,95.73,84.2,8.05
406,huarmey,20,PE,1525644425,65,-10.07,-78.15,74.27,3.71
407,kargopol,88,RU,1525644425,80,61.51,38.95,48.17,9.75
408,salmas,0,IR,1525640400,76,38.2,44.77,51.8,6.93
409,roma,75,IT,1525643400,93,41.89,12.48,60.8,3.36
410,puerto colombia,40,CO,1525640400,88,10.99,-74.96,82.4,4.7
411,hamburg,0,DE,1525641600,71,53.55,10.0,60.8,6.93
412,banepa,40,NP,1525643400,93,27.63,85.52,62.6,3.36
413,baruun-urt,8,MN,1525644427,34,46.68,113.28,41.87,10.65
414,moroni,80,US,1525644427,16,39.52,-111.59,71.21,4.61
415,laguna,5,MX,1525639440,8,27.52,-110.01,96.8,6.93
416,arona,75,IT,1525643400,93,45.76,8.56,68.0,1.12
417,tazovskiy,56,RU,1525644428,85,67.47,78.7,9.29,15.12
418,oranjemund,0,ZA,1525644429,90,-28.55,16.43,63.11,2.26
419,severo-yeniseyskiy,0,RU,1525644429,59,60.37,93.04,14.69,3.83
420,salumbar,0,IN,1525644430,34,24.14,74.05,75.71,8.3
421,siirt,0,TR,1525644430,91,37.93,41.94,51.5,2.04
422,port hawkesbury,20,CA,1525640400,36,45.62,-61.36,62.6,21.92
423,raudeberg,100,NO,1525641600,87,61.99,5.14,50.0,21.92
424,solnechnyy,0,RU,1525644433,67,50.72,136.64,33.5,5.84
425,shalya,92,RU,1525644433,95,57.25,58.73,45.11,13.0
426,nabire,0,ID,1525644434,95,-3.36,135.5,65.27,1.36
427,ahuimanu,90,US,1525641300,65,21.44,-157.84,84.2,12.75
428,kholodnyy,0,RU,1525644434,98,62.72,147.95,32.51,3.71
429,lakes entrance,0,AU,1525644434,100,-37.88,147.99,51.41,6.29
430,south yuba city,1,US,1525642800,31,39.12,-121.64,75.2,5.82
431,ninghai,40,CN,1525640400,78,29.29,121.42,77.0,4.47
432,sydney,0,AU,1525642200,72,-33.85,151.22,59.0,8.05
433,balikpapan,0,ID,1525644435,100,-1.24,116.86,81.29,2.04
434,santa vitoria do palmar,0,BR,1525644150,85,-33.52,-53.37,66.98,11.99
435,saint-pierre,0,FR,1525642200,59,48.95,4.24,64.4,6.93
436,komsomolskiy,64,RU,1525644436,79,67.55,63.78,13.88,4.72
437,shellbrook,75,CA,1525640400,25,53.22,-106.39,80.6,18.34
438,sokol,8,RU,1525644436,86,59.46,40.11,41.33,3.83
439,tura,32,IN,1525644436,99,25.52,90.21,67.88,4.27
440,tromso,75,NO,1525641600,93,69.65,18.96,39.2,8.05
441,carman,1,CA,1525643700,19,49.51,-98.0,78.8,17.22
442,elko,1,US,1525640160,11,40.83,-115.76,78.8,14.99
443,muli,0,IN,1525644437,66,22.62,71.45,78.41,11.65
444,fare,76,PF,1525644437,100,-16.7,-151.02,81.47,15.23
445,ambilobe,0,MG,1525644437,77,-13.19,49.05,72.47,8.63
446,skibotn,75,NO,1525641600,97,69.39,20.27,39.2,8.05
447,kundla,0,IN,1525644438,65,21.34,71.31,77.69,10.2
448,waiouru,0,NZ,1525644271,86,-39.48,175.67,45.38,7.74
449,ngunguru,12,NZ,1525644438,100,-35.62,174.5,62.66,13.78
450,merauke,56,ID,1525644438,96,-8.49,140.4,78.77,8.41
451,teahupoo,75,PF,1525642200,66,-17.83,-149.27,84.2,8.05
452,big spring,1,US,1525642500,25,32.25,-101.48,93.2,8.05
453,puerto rico,36,PY,1525644359,95,-26.82,-55.03,69.95,2.71
454,xiamen,75,CN,1525640400,88,24.46,118.07,78.8,2.24
455,saravan,75,AM,1525642200,87,39.72,45.65,57.2,4.7
456,shimoda,90,JP,1525641420,87,34.7,138.93,59.0,16.69
457,talnakh,0,RU,1525644439,42,69.49,88.39,4.97,3.94
458,nauta,32,PE,1525644439,75,-4.51,-73.58,85.07,3.6
459,tatarsk,56,RU,1525644440,82,55.22,75.96,26.03,3.04
460,jaisalmer,8,IN,1525644440,33,26.91,70.91,86.33,13.78
461,ligayan,0,PH,1525644440,100,4.65,119.47,83.45,2.26
462,puri,0,ID,1525644440,89,-7.54,112.45,69.95,3.94
463,lata,88,IN,1525644440,93,30.78,78.62,47.9,2.59
464,jay,1,US,1525642500,28,36.42,-94.8,86.0,6.93
465,xai-xai,0,MZ,1525644441,100,-25.04,33.64,70.31,7.29
466,bulgan,0,MN,1525644441,75,48.81,103.53,39.98,2.59
467,sur,8,OM,1525644441,85,22.57,59.53,84.71,4.61
468,polson,8,US,1525644264,50,47.69,-114.16,68.6,2.82
469,salinopolis,36,BR,1525644441,100,-0.61,-47.36,81.47,10.31
470,derzhavinsk,0,KZ,1525644441,72,51.1,66.31,32.6,8.41
471,imeni poliny osipenko,68,RU,1525644442,61,52.42,136.49,36.2,6.96
472,egvekinot,56,RU,1525644442,87,66.32,-179.17,16.76,8.97
473,humaita,90,AR,1525640400,82,-24.93,-65.37,69.8,6.93
474,rehoboth,0,NA,1525644442,39,-23.31,17.08,51.32,6.17
475,oksfjord,75,NO,1525641600,80,70.24,22.35,39.2,28.86
476,tanete,12,ID,1525644442,96,-3.94,119.78,75.53,6.4
477,hobyo,24,SO,1525644443,95,5.35,48.53,77.6,7.52
478,clyde river,1,CA,1525640400,84,70.47,-68.59,5.0,3.36
479,ilulissat,48,GL,1525639800,72,69.22,-51.1,17.6,3.36
480,tolaga bay,0,NZ,1525644443,69,-38.37,178.3,58.43,9.75
481,pangkalanbuun,0,ID,1525644443,88,-2.68,111.62,75.89,4.61
482,abu zabad,0,SD,1525644444,32,12.35,29.25,83.63,9.98
483,desbiens,20,CA,1525640400,42,48.42,-71.95,46.4,8.05
484,ubala,0,YE,1525644444,64,13.89,44.44,50.51,2.71
485,ratnagiri,80,IN,1525644444,100,16.98,73.3,83.09,3.04
486,abu samrah,76,SY,1525644444,44,35.3,37.18,65.54,7.07
487,beringovskiy,80,RU,1525644444,100,63.05,179.32,23.96,18.7
488,xuanhua,32,CN,1525644445,67,40.61,115.04,41.69,2.26
489,milas,40,TR,1525642860,82,37.31,27.78,62.6,2.24
490,matara,32,PE,1525644445,46,-13.74,-72.9,57.08,2.48
491,klyuchi,24,RU,1525644445,71,52.25,79.17,34.31,14.67
492,rajshahi,92,BD,1525644445,96,24.37,88.59,73.37,6.96
493,sayyan,0,YE,1525644446,26,15.17,44.32,51.05,4.16
494,gigmoto,44,PH,1525644446,100,13.78,124.39,79.67,5.39
495,redondela,0,ES,1525642200,63,42.28,-8.61,62.6,3.36
496,diamantino,12,BR,1525644447,65,-14.4,-56.44,84.17,4.16
497,skjervoy,32,NO,1525644448,99,70.03,20.97,38.99,23.17
498,oriximina,68,BR,1525644448,64,-1.77,-55.87,85.88,4.94
499,alofi,0,NU,1525640400,61,-19.06,-169.92,78.8,8.05
500,tsaratanana,80,MG,1525644449,72,-16.8,47.65,74.45,5.73
501,mildura,64,AU,1525644449,91,-34.18,142.16,47.45,8.86
502,buritis,0,BR,1525644449,48,-15.62,-46.42,79.49,6.96
503,rexburg,20,US,1525642800,25,43.82,-111.79,82.4,13.87
504,fairbanks,90,US,1525640280,27,64.84,-147.72,51.8,10.29
505,wawa,8,NG,1525644450,66,9.9,4.41,83.72,9.75
506,vidim,0,CZ,1525642200,62,50.47,14.53,55.4,9.17
507,kem,24,UG,1525644450,93,2.68,33.77,66.8,0.58
508,fort-shevchenko,88,KZ,1525644450,51,44.51,50.26,68.6,21.05
509,peniche,0,PT,1525642200,48,39.36,-9.38,64.4,2.24
510,cortez,1,US,1525639980,8,37.35,-108.58,78.8,12.75
511,sao jose da coroa grande,36,BR,1525644451,87,-8.9,-35.15,76.97,7.52
512,klaksvik,48,FO,1525643400,87,62.23,-6.59,42.8,11.41
513,san policarpo,80,PH,1525644451,99,12.18,125.51,79.67,6.62
514,haradok,0,BY,1525644451,57,55.46,29.99,51.23,10.09
515,ixtapa,75,MX,1525639440,74,20.71,-105.21,82.4,13.87
516,warri,8,NG,1525644452,75,5.52,5.75,80.57,8.97
517,mitsamiouli,12,KM,1525644452,99,-11.38,43.28,80.57,9.19
518,normandin,20,CA,1525640400,42,48.84,-72.53,46.4,8.05
519,acajutla,75,SV,1525639800,75,13.59,-89.83,89.6,10.29
520,mandalgovi,0,MN,1525644452,49,45.76,106.27,44.3,7.74
521,phalodi,0,IN,1525644452,33,27.13,72.36,82.28,10.54
522,koutsouras,32,GR,1525644453,100,35.03,25.95,63.56,4.38
523,poronaysk,88,RU,1525644453,99,49.22,143.1,31.88,3.38
524,champerico,75,MX,1525639800,61,16.38,-93.6,78.8,14.99
525,pasni,0,PK,1525644453,96,25.26,63.48,81.83,10.98
526,leme,80,BR,1525644454,35,-22.19,-47.39,81.83,7.4
527,green river,20,US,1525643640,15,41.53,-109.47,75.2,4.05
528,orasac,75,RS,1525642200,82,43.06,22.07,64.4,9.17
529,nueve de julio,88,AR,1525644454,72,-31.67,-68.39,65.45,3.83
530,cam ranh,0,VN,1525644454,100,11.92,109.15,76.97,5.73
531,eureka,20,US,1525642500,67,40.8,-124.16,59.0,14.99
532,chhaprauli,0,IN,1525644455,60,29.21,77.17,72.29,3.49
533,nioro,0,GM,1525644455,60,13.79,-15.05,84.53,2.71
534,natal,20,BR,1525640400,83,-5.81,-35.21,78.8,8.05
535,sinnamary,88,GF,1525644455,94,5.38,-52.96,80.66,11.88
536,mount isa,0,AU,1525642200,39,-20.73,139.49,64.4,5.82
537,mikkeli,0,FI,1525641600,81,61.69,27.27,51.8,2.24
538,paraiso,75,MX,1525639620,29,24.01,-104.61,77.0,23.04
539,barinitas,44,VE,1525644456,82,8.76,-70.41,73.46,2.59
540,talkha,100,EG,1525644456,54,31.05,31.37,73.1,8.3
541,klamath falls,1,US,1525643580,28,42.22,-121.78,69.8,5.61
542,cayenne,90,GF,1525642200,83,4.94,-52.33,80.6,9.17
543,rio gallegos,0,AR,1525640400,70,-51.62,-69.22,44.6,2.24
544,ahipara,56,NZ,1525644457,95,-35.17,173.16,61.67,10.2
545,vila franca do campo,20,PT,1525642200,72,37.72,-25.43,59.0,6.93
546,constitucion,75,MX,1525639620,29,23.99,-104.67,77.0,23.04
547,vostok,64,RU,1525644457,94,46.45,135.83,32.87,2.15
548,colimes,75,EC,1525640400,62,-1.55,-80.01,86.0,8.05
549,shelburne,90,CA,1525641960,87,44.08,-80.2,62.6,5.82
550,toora-khem,92,RU,1525644458,83,52.47,96.11,27.11,4.94
551,antalaha,32,MG,1525644458,92,-14.9,50.28,75.89,7.07
552,inhambane,0,MZ,1525644458,100,-23.87,35.38,67.97,5.61
