,City Name,Country,Latitude,Longitude,Temperature(C),Humidity(%),Cloudiness(%),Wind Speed(MpH),Date
0,Camacha,PT,33.08,-16.33,16.0,63,40,6.2,1526157000
1,Kodiak,US,39.95,-94.76,28.0,58,90,5.1,1526154780
2,Miri,NG,10.31,9.75,20.0,96,80,2.41,1526159875
3,Calvinia,ZA,-31.47,19.78,3.15,78,0,1.21,1526159875
4,Albany,US,42.65,-73.75,8.21,93,90,1.5,1526159520
5,Arraial do Cabo,BR,-22.97,-42.02,28.63,61,0,2.6,1526158800
6,Chifeng,CN,42.27,118.96,8.75,92,0,1.41,1526159877
7,Castro,CL,-42.48,-73.76,11.48,96,92,2.86,1526159878
8,Hilo,US,19.71,-155.08,23.82,78,90,1.5,1526158560
9,Hithadhoo,MV,-0.6,73.08,26.63,100,88,1.96,1526159878
10,Port Alfred,ZA,-33.59,26.89,16.5,100,92,5.11,1526159879
11,Jamestown,AU,-33.21,138.6,5.63,88,36,3.11,1526159769
12,Bethel,US,60.79,-161.76,4.0,93,90,12.3,1526158380
13,Ushuaia,AR,-54.81,-68.31,3.0,64,40,2.6,1526158800
14,Antalaha,MG,-14.9,50.28,23.13,100,80,3.46,1526159881
15,Nemuro,JP,43.32,145.57,7.15,92,64,2.61,1526159881
16,East London,ZA,-33.02,27.91,19.15,100,12,5.96,1526159881
17,Mataura,NZ,-46.19,168.86,-2.93,76,0,1.21,1526159882
18,Dikson,RU,73.51,80.55,-8.0,98,80,7.21,1526159882
19,Gamba,CN,28.28,88.52,-13.63,59,0,1.46,1526159882
20,Sao Filipe,CV,14.9,-24.5,21.33,99,0,5.46,1526159883
21,Rikitea,PF,-23.12,-134.97,26.25,100,12,2.66,1526159883
22,Puerto Cabezas,NI,14.04,-83.39,31.0,74,40,3.1,1526155200
23,Talnakh,RU,69.49,88.39,-16.63,67,0,2.41,1526159884
24,Merauke,ID,-8.49,140.4,25.48,100,48,4.66,1526159884
25,Den Helder,NL,52.96,4.76,17.29,72,90,4.6,1526158500
26,Chokurdakh,RU,70.62,147.9,-12.65,92,0,2.06,1526159885
27,Sao Joao da Barra,BR,-21.64,-41.05,27.0,65,0,2.6,1526158800
28,Tasiilaq,GL,65.61,-37.64,0.0,98,75,7.7,1526158200
29,Lebu,ET,8.96,38.73,11.73,50,0,2.56,1526159886
30,Cidreira,BR,-30.17,-50.22,18.48,74,32,4.31,1526159886
31,Torbay,CA,47.66,-52.73,7.0,45,20,8.7,1526155200
32,Saint-Pierre,FR,48.95,4.24,14.55,93,88,3.6,1526158800
33,Busselton,AU,-33.64,115.35,18.85,100,80,3.11,1526159888
34,Tiarei,PF,-17.53,-149.33,30.0,66,40,5.7,1526158800
35,Umm Lajj,SA,25.02,37.27,23.35,83,0,3.36,1526159888
36,Yar-Sale,RU,66.83,70.83,-11.98,81,36,1.76,1526159889
37,Ponta Delgada,PT,37.73,-25.67,16.0,67,75,3.1,1526157000
38,Anito,PH,12.45,125.29,27.93,100,56,4.41,1526159890
39,Hermanus,ZA,-34.42,19.24,8.0,91,64,1.01,1526159890
40,Atuona,PF,-9.8,-139.03,27.43,100,0,7.21,1526159890
41,Chilca,PE,-13.22,-72.34,18.0,34,75,4.6,1526158800
42,Erzin,TR,36.95,36.2,18.82,93,75,1.0,1526156400
43,Bluff,AU,-23.58,149.07,7.03,87,12,3.01,1526159892
44,Karasburg,NA,-28.01,18.75,8.1,70,0,3.91,1526159893
45,Alice Springs,AU,-23.7,133.88,3.0,74,0,1.0,1526158800
46,Ouango,CD,4.31,22.55,22.93,93,44,1.51,1526159894
47,Butaritari,KI,3.07,172.79,25.23,100,92,1.61,1526159894
48,Kyaukse,MM,21.6,96.13,20.15,98,88,1.11,1526159895
49,Palenque,MX,17.51,-91.98,32.25,60,12,1.86,1526159895
50,Sibolga,ID,1.74,98.78,19.85,100,8,0.86,1526159895
51,Puerto Ayora,EC,-0.74,-90.35,28.0,69,40,8.2,1526158800
52,Nishihara,JP,35.74,139.53,17.27,82,75,1.41,1526158560
53,Kavaratti,IN,10.57,72.64,28.53,100,92,1.61,1526159896
54,Fairbanks,US,64.84,-147.72,12.33,27,90,3.1,1526158680
55,Langres,FR,47.87,5.33,14.0,76,80,10.3,1526158800
56,Airai,TL,-8.93,125.41,20.9,86,56,1.11,1526159897
57,Tiksi,RU,71.64,128.87,-10.75,89,68,3.21,1526159898
58,Kaduna,NG,10.52,7.44,25.35,78,12,2.96,1526159886
59,Flinders,AU,-34.58,150.85,13.0,62,90,6.7,1526155200
60,Dingle,PH,11.0,122.67,23.48,97,12,2.51,1526159898
61,Vaini,IN,15.34,74.49,23.0,93,12,1.16,1526159899
62,Parole,US,38.98,-76.54,28.87,83,1,5.7,1526158680
63,Kandrian,PG,-6.21,149.55,23.63,98,12,1.06,1526159899
64,Punta Arenas,CL,-53.16,-70.91,4.0,86,40,3.1,1526158800
65,New Norfolk,AU,-42.78,147.06,10.0,87,40,4.1,1526158800
66,Timaru,NZ,-44.39,171.25,3.93,100,88,1.36,1526159900
67,Labuhan,ID,-2.54,115.51,23.28,95,80,0.96,1526159901
68,Ponta do Sol,BR,-20.63,-46.0,23.33,56,44,1.26,1526159901
69,Waycross,US,31.21,-82.35,31.55,20,40,4.1,1526158740
70,Ribeira Grande,PT,38.52,-28.7,17.0,59,75,4.1,1526155200
71,Manokwari,ID,-0.87,134.08,27.38,100,0,2.41,1526159902
72,Rudnyy,KZ,52.96,63.12,4.0,60,0,4.0,1526157000
73,Necochea,AR,-38.55,-58.74,14.25,70,0,5.71,1526159903
74,Obo,CF,5.39,26.49,20.38,97,80,3.76,1526159903
75,Lagoa,PT,37.14,-8.45,16.0,51,0,4.6,1526158800
76,Stonewall,CA,50.13,-97.33,21.0,13,20,5.7,1526155200
77,Whitehorse,CA,60.72,-135.06,13.0,26,75,7.2,1526155200
78,Barrow,AR,-38.31,-60.23,14.03,53,0,3.56,1526159905
79,Maceio,BR,-9.67,-35.74,25.0,83,0,3.1,1526158800
80,Kurush,RU,41.28,47.83,5.15,96,64,0.66,1526159905
81,Vestmannaeyjar,IS,63.44,-20.27,8.38,83,20,4.36,1526159906
82,Fengcheng,CN,40.45,124.07,5.78,89,36,1.16,1526159906
83,Nantucket,US,41.28,-70.1,10.4,100,90,5.1,1526159700
84,Alekseyevsk,RU,57.84,108.35,-0.78,79,76,1.06,1526159907
85,Tuatapere,NZ,-46.13,167.69,5.1,100,20,2.41,1526159907
86,El Alto,BO,-16.5,-68.19,13.0,26,40,3.6,1526158800
87,Faanui,PF,-16.48,-151.75,27.78,100,88,6.61,1526159908
88,Esperance,TT,10.24,-61.45,28.0,69,75,8.2,1526155200
89,Iqaluit,CA,63.75,-68.52,-9.0,78,90,11.8,1526155200
90,Khao Yoi,TH,13.24,99.82,22.9,98,44,1.31,1526159909
91,Thompson,CA,55.74,-97.86,22.0,24,75,10.3,1526155200
92,Czersk,PL,53.8,17.98,15.68,56,0,3.06,1526159911
93,Saskylakh,RU,71.97,114.09,-11.85,85,64,1.66,1526159912
94,Puerto Ayacucho,CO,5.66,-67.63,33.0,52,40,2.1,1526158800
95,Georgetown,GY,6.8,-58.16,24.0,100,75,1.0,1526158800
96,Pachino,IT,36.72,15.09,15.0,82,0,1.5,1526158200
97,Maine-Soroa,NE,13.21,12.02,29.23,29,0,4.21,1526159913
98,Longyearbyen,NO,78.22,15.63,2.0,74,40,5.7,1526158200
99,Mahibadhoo,MV,3.78,72.97,28.13,100,76,4.21,1526159914
100,Yakeshi,CN,49.28,120.73,0.48,57,8,3.71,1526159914
101,Saint-Philippe,CA,45.36,-73.48,16.5,20,1,2.6,1526157300
102,Bilma,NE,18.69,12.92,33.85,10,32,5.21,1526159915
103,Darhan,MN,49.49,105.92,10.53,90,80,0.71,1526159915
104,Neyvo-Shaytanskiy,RU,57.73,61.25,0.68,53,0,2.21,1526159916
105,Aleksandrovsk-Sakhalinskiy,RU,50.9,142.16,4.83,80,0,4.21,1526159916
106,Yellowknife,CA,62.45,-114.38,13.0,47,75,6.2,1526155200
107,Qaanaaq,GL,77.48,-69.36,-10.4,97,12,1.11,1526159917
108,Luau,CD,-10.7,22.23,19.98,82,12,1.06,1526159918
109,Fort Dodge,US,42.5,-94.17,11.4,87,90,6.7,1526158560
110,Kahului,US,20.89,-156.47,26.31,74,40,10.3,1526158560
111,Benguela,AO,-12.58,13.4,25.15,100,12,2.51,1526159919
112,Quatre Cocos,MU,-20.21,57.76,23.0,83,40,1.5,1526155200
113,Huarmey,PE,-10.07,-78.15,22.98,64,0,1.81,1526159920
114,Nanortalik,GL,60.14,-45.24,0.98,93,68,2.56,1526159920
115,Takoradi,GH,4.89,-1.75,25.78,99,32,4.26,1526159921
116,Tuktoyaktuk,CA,69.44,-133.03,-3.09,79,75,9.8,1526155200
117,Hamilton,BM,32.3,-64.78,25.0,78,75,4.6,1526158500
118,Petropavlovsk-Kamchatskiy,RU,53.05,158.65,6.0,70,36,2.0,1526157000
119,Moron,VE,10.49,-68.2,30.0,66,40,4.1,1526158800
120,Sorong,ID,-0.86,131.25,27.63,100,0,0.96,1526159923
121,Manica,MZ,-18.94,32.88,21.0,88,40,1.06,1526155200
122,Bredasdorp,ZA,-34.53,20.04,14.15,96,24,0.16,1526159924
123,Mehamn,NO,71.03,27.85,2.1,85,0,1.06,1526159924
124,Kapaa,US,22.08,-159.32,25.93,78,40,6.2,1526158560
125,Sergeyevka,KZ,53.88,67.42,0.38,67,0,5.66,1526159925
126,San Patricio,PY,-26.98,-56.83,19.33,74,0,1.26,1526159926
127,Luganville,VU,-15.51,167.18,26.78,99,8,5.01,1526159926
128,Quelimane,MZ,-17.88,36.89,23.0,88,0,1.5,1526155200
129,Ahuimanu,US,21.44,-157.84,27.26,74,1,4.6,1526158620
130,Ospitaletto,IT,45.56,10.07,18.6,82,40,1.0,1526158500
131,Cabra,ES,37.47,-4.43,15.0,51,0,2.6,1526158800
132,Hobart,AU,-42.88,147.33,10.0,87,40,4.1,1526158800
133,Tumaco,CO,1.8,-78.82,25.88,98,92,1.76,1526159928
134,Rudnogorsk,RU,57.27,103.75,4.38,94,68,2.46,1526159928
135,Serenje,ZM,-13.23,30.22,17.33,60,0,3.06,1526159929
136,Mar del Plata,AR,-46.43,-67.52,6.4,95,56,3.31,1526159929
137,Vila Franca do Campo,PT,37.72,-25.43,16.0,67,75,3.6,1526158800
138,Avarua,CK,-21.21,-159.78,25.0,73,75,5.7,1526158800
139,Namibe,AO,-15.19,12.15,22.5,100,0,5.76,1526159931
140,Tabas,IR,33.6,56.92,16.9,58,92,4.51,1526159931
141,Miandrivazo,MG,-19.53,45.46,18.1,79,0,0.96,1526159932
142,Sokoni,CD,-12.89,28.78,19.6,57,64,2.56,1526159932
143,Sukumo,JP,32.94,132.72,17.93,95,80,2.61,1526159933
144,Oranjestad,AW,12.52,-70.03,31.0,74,20,10.3,1526155200
145,Leningradskiy,RU,69.38,178.42,-11.58,98,0,6.16,1526159935
146,Cabo San Lucas,MX,22.89,-109.91,29.53,37,20,5.1,1526157660
147,Nikolskoye,RU,59.7,30.79,12.0,62,0,1.16,1526157000
148,Boende,CD,-0.28,20.88,21.53,100,36,1.86,1526159936
149,Ambanja,MG,-13.68,48.45,20.78,88,20,1.61,1526159936
150,Mount Gambier,AU,-37.83,140.78,12.1,84,92,2.21,1526159936
151,Sur,OM,22.57,59.53,30.78,79,0,5.71,1526159937
152,Mahebourg,MU,-20.41,57.7,23.0,83,40,1.5,1526155200
153,Aquidauana,BR,-20.47,-55.78,23.33,67,12,1.91,1526159938
154,Srandakan,ID,-7.94,110.25,23.5,87,76,1.51,1526159938
155,Clyde River,CA,70.47,-68.59,-11.0,78,75,10.3,1526155200
156,Cartagena,ES,37.63,-1.0,19.0,82,0,2.6,1526158800
157,Comodoro Rivadavia,AR,-45.87,-67.48,7.0,81,75,2.6,1526158800
158,Cherskiy,RU,68.75,161.3,-2.4,83,44,1.21,1526159941
159,Bambous Virieux,MU,-20.34,57.76,23.0,83,40,1.5,1526155200
160,Bonthe,SL,7.53,-12.5,27.03,84,36,2.56,1526159942
161,Bathsheba,BB,13.22,-59.52,27.0,74,20,10.3,1526158800
162,Klaksvik,FO,62.23,-6.59,7.0,87,0,2.1,1526158200
163,Vostok,RU,46.45,135.83,9.85,85,76,0.76,1526159943
164,Fremont,US,37.55,-121.99,23.67,41,1,8.2,1526158560
165,Mackay,CA,53.65,-115.58,22.0,26,75,7.2,1526155200
166,Puerto Madryn,AR,-42.77,-65.04,11.85,89,76,3.21,1526159884
167,Haverfordwest,GB,51.8,-4.97,8.0,81,48,3.6,1526158200
168,Bijawar,IN,24.62,79.49,22.53,74,0,1.86,1526159946
169,Port Elizabeth,US,39.31,-74.98,24.81,65,1,2.6,1526158560
170,Kenora,CA,49.76,-94.48,16.19,30,1,2.6,1526159700
171,Talcahuano,CL,-36.72,-73.12,14.0,87,0,3.6,1526158800
172,Rio Gallegos,AR,-51.62,-69.22,6.0,87,20,1.0,1526158800
173,Chapais,CA,49.78,-74.86,7.0,39,75,9.8,1526156100
174,Pareora,NZ,-44.49,171.21,3.93,100,88,1.36,1526159949
175,Lima,PE,-12.06,-77.04,20.08,71,12,1.26,1526159723
176,Fort Nelson,CA,58.81,-122.69,21.0,28,75,6.2,1526155200
177,Cividale del Friuli,IT,46.09,13.43,18.42,88,0,2.1,1526158500
178,Venustiano Carranza,MX,19.42,-99.11,24.93,18,40,3.6,1526158320
179,Northam,GB,51.04,-4.21,9.5,87,20,2.1,1526158200
180,Batemans Bay,AU,-35.71,150.18,13.1,100,92,5.41,1526159951
181,Arlit,NE,18.74,7.39,33.53,14,68,4.81,1526159951
182,Wattegama,LK,7.35,80.68,21.15,97,92,1.41,1526159951
183,Flin Flon,CA,54.77,-101.88,24.0,22,75,10.3,1526155200
184,Coihaique,CL,-45.58,-72.07,5.55,75,90,0.96,1526158800
185,Evensk,RU,61.92,159.24,0.98,87,8,3.31,1526159953
186,Jiayuguan,CN,39.77,98.29,4.35,43,0,1.16,1526159953
187,Isangel,VU,-19.55,169.27,25.53,100,0,5.36,1526159954
188,Channel-Port aux Basques,CA,47.57,-59.14,2.1,95,32,7.01,1526159954
189,Meulaboh,ID,4.14,96.13,26.48,100,20,1.91,1526159955
190,Yantal,RU,56.85,105.25,4.13,86,92,1.96,1526159955
191,Kedrovyy,RU,56.17,91.82,5.0,93,40,1.06,1526157000
192,Jumla,NP,29.28,82.18,1.03,84,24,1.16,1526159956
193,Namwala,ZM,-15.75,26.45,19.65,63,76,2.81,1526159956
194,Gopalur,IN,16.62,77.8,22.28,86,0,3.91,1526159957
195,Viedma,AR,-40.81,-62.99,12.88,60,36,2.61,1526159957
196,Saint George,GR,39.45,22.34,15.0,93,0,1.66,1526158200
197,Hambantota,LK,6.12,81.12,25.93,100,44,5.96,1526159958
198,Nelson Bay,AU,-32.72,152.14,15.0,54,90,5.7,1526158800
199,Burnie,AU,-41.05,145.91,12.13,100,0,3.41,1526159959
200,Port Lincoln,AU,-34.72,135.86,14.28,100,88,3.46,1526159959
201,Boyolangu,ID,-8.09,111.9,21.38,92,12,2.06,1526159959
202,Anadyr,RU,64.73,177.51,-7.0,85,90,3.0,1526155200
203,Ostrovnoy,RU,68.05,39.51,1.38,89,68,2.16,1526159960
204,Sindor,RU,62.87,51.9,0.5,75,8,2.16,1526159960
205,Kikwit,CD,-5.04,18.82,22.33,95,0,1.76,1526159961
206,Saldanha,PT,41.42,-6.55,8.1,46,0,4.31,1526159961
207,Gandajika,CD,-6.75,23.95,22.78,91,0,1.01,1526159961
208,Kieta,PG,-6.22,155.63,26.15,100,12,1.01,1526159962
209,Areosa,PT,41.72,-8.86,9.43,76,20,3.1,1526158800
210,Arman,RU,59.7,150.17,2.0,59,0,3.0,1526155200
211,Coahuayana,MX,18.62,-100.35,29.38,47,0,1.36,1526159962
212,Katsuura,JP,33.93,134.5,14.98,90,92,2.26,1526159963
213,Provideniya,RU,64.42,-173.23,-0.75,100,92,4.06,1526159963
214,Moura,PT,38.14,-7.45,11.0,62,0,5.1,1526158800
215,Ambilobe,MG,-13.19,49.05,25.0,71,8,4.36,1526159964
216,Lorengau,PG,-2.02,147.27,28.6,100,92,2.96,1526159964
217,Santiago,CL,-33.44,-70.65,20.5,26,0,3.1,1526158800
218,Cochrane,CL,-47.25,-72.57,2.0,85,56,0.71,1526159965
219,Sitka,US,37.17,-99.65,35.83,30,0,1.41,1526159966
220,Urrao,CO,6.32,-76.13,23.0,73,75,1.11,1526158800
221,Bandarbeyla,SO,9.49,50.81,28.73,100,0,4.66,1526159966
222,Khatanga,RU,71.98,102.47,-18.33,68,0,1.51,1526159966
223,Towada,JP,40.61,141.21,11.98,70,92,0.96,1526159967
224,Onega,RU,63.91,38.09,7.28,74,8,3.06,1526159967
225,La Ronge,CA,55.1,-105.3,24.0,27,75,7.7,1526155200
226,Carnarvon,ZA,-30.97,22.13,5.1,76,0,4.06,1526159968
227,Victor Harbor,AU,-35.55,138.62,13.0,82,40,3.6,1526158800
228,Pilot Butte,CA,50.48,-104.42,16.0,44,75,6.2,1526155200
229,Haines Junction,CA,60.75,-137.51,5.83,36,8,2.21,1526159969
230,Port Alberni,CA,49.24,-124.81,17.46,63,20,5.1,1526155200
231,Nome,US,30.04,-94.42,31.23,52,1,5.1,1526157300
232,Porto Belo,BR,-27.15,-48.54,20.94,68,20,3.1,1526158800
233,Kruisfontein,ZA,-34.0,24.73,14.73,94,44,4.26,1526159970
234,Acari,BR,-6.44,-36.64,26.53,64,44,5.01,1526159971
235,Don Benito,ES,38.95,-5.86,12.85,43,0,6.11,1526159971
236,Pathein,MM,16.78,94.73,24.4,94,8,1.26,1526159971
237,Tezu,IN,27.93,96.16,16.6,70,88,0.71,1526159972
238,Mount Darwin,ZW,-16.77,31.58,16.15,92,0,1.21,1526159972
239,Neiafu,TO,-18.65,-173.98,26.0,69,40,6.2,1526158800
240,Fortuna,ES,38.18,-1.13,19.0,88,20,6.01,1526158800
241,Yaan,NG,7.38,8.57,26.43,84,32,4.86,1526159974
242,Mpika,ZM,-11.84,31.4,15.25,67,0,2.31,1526159974
243,Falmouth,GB,50.16,-5.07,8.0,87,8,0.5,1526158200
244,Otradnoye,RU,59.77,30.8,12.0,62,0,1.16,1526157000
245,Saint-Louis,CH,47.59,7.56,16.3,59,75,5.1,1526158800
246,Lubango,AO,-14.92,13.49,15.53,95,0,0.96,1526159976
247,Kortkeros,RU,61.81,51.56,5.0,60,0,1.0,1526157000
248,Soyo,AO,-6.13,12.37,22.58,100,92,2.06,1526159977
249,Staunton,US,38.15,-79.07,30.44,33,1,5.7,1526158380
250,Yulara,AU,-25.24,130.99,6.0,67,0,3.1,1526158800
251,Usinsk,RU,66.0,57.56,-0.23,87,56,4.01,1526159978
252,Dire,ET,9.18,38.92,11.73,50,0,2.56,1526159978
253,Sinnamary,GF,5.38,-52.96,24.6,100,88,1.66,1526159978
254,San Cristobal,EC,-0.39,-78.55,19.0,55,40,6.2,1526158800
255,Saint Anthony,US,43.97,-111.68,11.22,51,1,7.7,1526158560
256,Karratha,AU,-20.74,116.85,18.38,26,0,6.61,1526159846
257,Inhambane,MZ,-23.87,35.38,22.08,100,32,3.76,1526159980
258,Najran,SA,17.54,44.22,29.0,18,5,1.21,1526155200
259,Manta,RO,45.1,24.1,12.33,99,92,2.16,1526159981
260,Goderich,CA,43.74,-81.71,14.83,63,0,2.66,1526159981
261,Boa Vista,BR,2.82,-60.67,29.9,70,88,3.06,1526159835
262,Obilnoye,RU,44.25,43.56,12.0,76,75,4.0,1526157000
263,Chuy,UY,-33.69,-53.46,15.98,77,0,6.56,1526159983
264,Kabalo,CD,-6.05,26.92,24.08,82,8,1.86,1526159983
265,Tessalit,ML,20.2,1.01,25.93,12,8,3.56,1526159983
266,Port Blair,IN,11.67,92.75,28.75,100,36,0.81,1526159984
267,Yatou,CM,3.63,9.81,27.0,83,40,2.6,1526155200
268,Ancud,CL,-41.87,-73.83,12.53,97,88,1.96,1526159984
269,Hvide Sande,DK,56.01,8.13,12.51,58,8,5.7,1526158200
270,Vao,EE,59.1,26.19,11.35,51,0,1.31,1526159985
271,Keflavik,IS,64.0,-22.56,9.07,87,75,3.6,1526158800
272,Cape Town,ZA,-33.93,18.42,13.0,100,20,3.1,1526155200
273,Caconda,AO,-13.73,15.06,18.15,60,12,2.41,1526159986
274,Hofn,IS,64.25,-15.21,7.33,95,92,1.51,1526159986
275,Praia,BR,-20.25,-43.81,25.46,41,0,2.6,1526155200
276,Sartell,US,45.62,-94.21,16.37,29,1,2.6,1526157300
277,Egvekinot,RU,66.32,-179.17,-2.68,90,56,1.16,1526159988
278,Harper,US,30.3,-99.24,30.66,40,1,6.7,1526158260
279,Faya,SA,18.39,42.45,22.0,43,5,0.96,1526155200
280,Grand Gaube,MU,-20.01,57.66,23.0,83,40,1.5,1526155200
281,Wencheng,CN,27.79,120.09,17.9,93,0,0.76,1526159990
282,Aklavik,CA,68.22,-135.01,5.0,93,90,3.1,1526155200
283,Nipawin,CA,53.36,-104.02,23.0,23,1,8.2,1526155200
284,Bakchar,RU,57.02,82.07,4.35,98,92,2.71,1526159991
285,Constitucion,MX,23.99,-104.67,29.0,14,75,4.6,1526158080
286,Peniche,PT,39.36,-9.38,11.5,62,20,4.6,1526158800
287,Pundaguitan,PH,6.37,126.17,26.15,100,64,2.51,1526159992
288,Skjervoy,NO,70.03,20.97,6.35,92,0,2.36,1526159992
289,Alofi,NU,-19.06,-169.92,26.0,69,40,8.2,1526155200
290,Bayir,TR,37.27,28.22,20.0,45,0,3.6,1526158200
291,Cayenne,GF,4.94,-52.33,26.0,88,75,2.6,1526158800
292,Tual,ID,-5.67,132.75,28.0,100,80,6.16,1526159994
293,Keuruu,FI,62.26,24.71,10.98,81,0,2.6,1526158200
294,Lasa,CY,34.92,32.53,19.12,82,20,1.5,1526158800
295,Ajdabiya,LY,30.75,20.22,16.25,93,0,3.46,1526159995
296,Tomatlan,MX,19.93,-105.25,31.63,49,12,2.56,1526159995
297,Peace River,CA,56.23,-117.29,23.0,27,75,5.1,1526155200
298,Awjilah,LY,29.14,21.3,24.08,34,32,5.96,1526159996
299,Saint-Francois,FR,46.42,3.91,9.0,87,64,2.1,1526158800
300,Portland,US,45.52,-122.67,19.74,56,1,2.1,1526158380
301,Kununurra,AU,-15.77,128.74,18.0,31,0,4.6,1526158800
302,Qasigiannguit,GL,68.82,-51.19,1.0,86,92,2.1,1526158200
303,Bubaque,GW,11.28,-15.83,25.0,73,0,2.6,1526158800
304,Ugoofaaru,MV,5.67,73.0,28.53,100,64,5.61,1526159997
305,Baza,ES,37.49,-2.77,11.23,45,0,2.31,1526159998
306,Mabay,CU,20.35,-76.78,30.0,62,75,5.7,1526158380
307,Esso,RU,55.93,158.7,1.38,91,0,1.11,1526159998
308,Kaeo,NZ,-35.1,173.78,17.9,100,92,4.56,1526159999
309,Aden,YE,12.79,45.03,29.1,100,0,6.56,1526159999
310,Khorixas,NA,-20.37,14.96,16.68,74,0,1.51,1526159999
311,Miguel Hidalgo,MX,19.41,-99.19,24.98,18,40,3.6,1526158320
312,Veraval,FR,49.65,0.71,9.0,93,90,3.6,1526158800
313,Russkaya Polyana,RU,53.78,73.88,2.13,72,32,6.81,1526160001
314,Aykhal,RU,65.95,111.51,-9.83,84,68,1.31,1526160002
315,Bud,NO,62.91,6.91,7.59,71,24,3.6,1526158200
316,Broken Hill,AU,-31.97,141.45,10.25,90,88,6.46,1526160002
317,Joshimath,IN,30.57,79.57,-2.93,94,68,0.26,1526160003
318,Nazilli,TR,37.91,28.32,13.18,74,0,0.86,1526160003
319,Bad Kreuznach,DE,49.84,7.87,18.37,52,90,3.1,1526158560
320,Upernavik,GL,72.79,-56.15,-5.53,100,92,7.81,1526160004
321,Sao Jose da Coroa Grande,BR,-8.9,-35.15,25.65,86,44,3.11,1526160005
322,Corowa,AU,-36.0,146.39,6.48,71,0,5.7,1526158800
323,Vila,IT,45.18,8.4,18.02,82,75,2.1,1526156400
324,Oussouye,SN,12.49,-16.54,22.52,88,0,2.1,1526158800
325,Zhanakorgan,KZ,43.91,67.25,16.83,93,64,3.36,1526160007
326,Salalah,OM,17.01,54.1,29.0,83,40,2.6,1526154600
327,Cascais,PT,38.7,-9.42,12.01,66,20,4.6,1526158800
328,Kemin,KG,42.79,75.7,9.15,97,92,0.76,1526160008
329,Kamenka,RU,53.19,44.05,12.23,66,48,1.51,1526160009
330,Cap Malheureux,MU,-19.98,57.61,23.0,83,40,1.5,1526155200
331,Kavieng,PG,-2.57,150.8,28.98,100,92,4.51,1526160009
332,Hasaki,JP,35.73,140.83,15.0,87,75,3.1,1526157000
333,Puerto Escondido,MX,15.86,-97.07,30.0,66,40,5.1,1526157900
334,Mitsamiouli,KM,-11.38,43.28,27.0,69,20,2.6,1526155200
335,Sola,NO,58.89,5.65,9.44,66,0,2.1,1526158200
336,Saint-Donat-de-Montcalm,CA,46.32,-74.22,13.5,39,0,2.41,1526159986
337,Kingaroy,AU,-26.54,151.84,6.75,90,0,4.81,1526160011
338,Awbari,LY,26.59,12.77,30.65,17,92,2.86,1526160012
339,Victoria,BN,5.28,115.24,25.49,94,75,1.46,1526157000
340,Bontang,ID,0.12,117.47,26.48,100,24,0.86,1526160013
341,Hatillo,PR,18.49,-66.83,26.0,61,90,2.6,1526158200
342,Ramhormoz,IR,31.28,49.6,28.0,51,40,3.1,1526155200
343,Torres,BR,-29.34,-49.73,18.98,92,0,4.61,1526160014
344,Blairmore,CA,49.61,-114.44,19.5,48,1,5.1,1526155200
345,Staryy Nadym,RU,65.61,72.68,-9.08,86,24,3.31,1526160015
346,Guerrero Negro,MX,27.97,-114.04,21.15,60,0,3.96,1526160015
347,Kostomuksha,RU,64.59,30.6,11.63,76,12,0.76,1526160015
348,Christchurch,NZ,-43.53,172.64,9.0,81,92,1.5,1526158800
349,Novogornyy,RU,55.63,60.79,1.0,55,0,2.0,1526157000
350,Doka,SD,13.52,35.76,27.58,45,8,1.81,1526160016
351,Jacareacanga,BR,-6.22,-57.76,30.63,61,12,1.76,1526160017
352,Medeiros Neto,BR,-17.37,-40.22,24.23,79,8,2.81,1526160017
353,San Rafael,AR,-34.61,-68.33,19.0,43,0,2.51,1526159904
354,Forbes,AU,-33.38,148.01,6.65,78,0,3.86,1526160018
355,Coquimbo,CL,-29.95,-71.34,15.0,77,90,3.6,1526158800
356,Lethem,GY,3.38,-59.8,31.5,56,64,4.76,1526160018
357,Mount Isa,AU,-20.73,139.49,13.0,68,12,4.1,1526158800
358,Yarada,IN,17.65,83.27,29.83,98,76,7.06,1526160019
359,Herat,AF,34.35,62.22,12.48,77,24,2.01,1526160019
360,Deputatskiy,RU,69.3,139.9,-8.33,94,76,1.76,1526160020
361,Fare,PF,-16.7,-151.02,27.93,99,56,6.91,1526160021
362,Honiara,SB,-9.43,159.96,24.0,94,75,2.1,1526158800
363,Luderitz,NA,-26.65,15.16,13.48,93,80,4.01,1526160022
364,Muli,IN,22.62,71.45,27.75,73,0,5.41,1526160022
365,Nyurba,RU,63.29,118.35,-4.88,75,0,1.21,1526160022
366,Ferrol,ES,43.48,-8.23,8.45,81,40,3.6,1526158800
367,Reconquista,AR,-29.14,-59.64,18.4,82,0,1.46,1526160023
368,Tarakan,ID,3.3,117.63,26.03,100,20,1.36,1526160023
369,Lavrentiya,RU,65.58,-170.99,-1.15,100,92,2.76,1526160023
370,Sorland,NO,67.67,12.69,7.75,92,92,0.46,1526160024
371,Taoudenni,ML,22.68,-3.98,24.25,17,0,1.16,1526160024
372,Dubbo,AU,-32.25,148.6,5.0,86,0,3.56,1526158800
373,Rocha,UY,-34.48,-54.34,13.6,76,0,5.01,1526160024
374,Sungaipenuh,ID,-2.08,101.38,19.15,96,68,0.26,1526160025
375,Primorsk,RU,60.37,28.62,10.88,68,20,0.06,1526160025
376,Shagonar,RU,51.54,92.92,5.4,93,36,1.76,1526160025
377,Tommot,RU,58.97,126.27,-4.0,50,0,2.11,1526160026
378,Kenai,US,60.55,-151.26,9.51,66,90,4.6,1526158560
379,Kupang,ID,-10.16,123.6,27.18,85,0,7.91,1526160026
380,Batsfjord,NO,70.63,29.72,6.75,90,8,2.41,1526160026
381,Hays,US,38.88,-99.33,18.9,64,20,6.2,1526158560
382,Socorro,PH,13.06,121.41,23.6,100,76,0.96,1526160027
383,Edendale,ZA,-29.65,30.31,12.43,98,92,1.06,1526160028
384,Road Town,VG,18.42,-64.62,28.0,65,40,4.6,1526158800
385,Grindavik,IS,63.84,-22.43,9.05,87,75,3.6,1526158800
386,Sandwick,GB,54.57,-2.89,9.0,87,80,2.1,1526158200
387,Sinnai,IT,39.3,9.2,16.67,93,20,2.1,1526158500
388,Port Huron,US,42.98,-82.44,11.14,47,1,2.6,1526159760
389,Misratah,LY,32.38,15.09,17.25,97,0,3.11,1526160030
390,Port Hardy,CA,50.7,-127.42,13.0,82,20,4.6,1526155200
391,Trinidad,UY,-33.52,-56.9,18.0,72,0,1.51,1526158800
392,Krokeai,GR,36.88,22.55,17.0,88,40,3.51,1526158200
393,Sabang,PH,13.72,123.58,24.48,99,0,1.41,1526160031
394,Lompoc,US,34.64,-120.46,20.32,49,1,4.6,1526158680
395,Presidencia Roque Saenz Pena,AR,-26.79,-60.44,18.88,82,0,2.11,1526160032
396,Vanimo,PG,-2.67,141.3,27.65,100,68,3.01,1526160032
397,Pevek,RU,69.7,170.27,-9.88,96,12,2.96,1526160033
398,Komsomolskiy,RU,67.55,63.78,-5.78,90,88,5.71,1526160033
399,Hohhot,CN,40.81,111.65,9.0,70,0,2.0,1526155200
400,Severo-Kurilsk,RU,50.68,156.12,2.98,96,0,2.51,1526160034
401,Narsaq,GL,60.91,-46.05,1.0,86,90,7.7,1526158200
402,Patti,IT,38.14,14.96,19.0,82,20,1.0,1526158500
403,Oudtshoorn,ZA,-33.59,22.2,12.0,93,0,1.5,1526155200
404,Adrar,DZ,27.87,-0.29,31.0,21,0,2.6,1526158800
405,Artyom,RU,43.36,132.19,11.0,93,75,2.0,1526157000
406,Astolfo Dutra,BR,-21.31,-42.86,22.93,77,8,0.96,1526160037
407,Santo Tomas,PH,17.4,121.77,22.23,100,64,1.11,1526160037
408,Havoysund,NO,71.0,24.66,6.0,96,8,2.6,1526158200
409,Tiquicheo,MX,18.9,-100.74,30.33,45,8,1.91,1526160038
410,Midleton,IE,51.91,-8.17,7.0,87,40,2.6,1526158800
411,Geraldton,CA,49.72,-86.95,17.0,14,40,4.1,1526155200
412,Vulcan,CA,50.4,-113.26,19.65,62,0,3.11,1526160040
413,Galesong,ID,-5.32,119.37,25.0,94,20,1.5,1526158800
414,Laguna,MX,27.52,-110.01,32.0,38,20,5.7,1526157600
415,Westport,IE,53.8,-9.52,6.0,81,40,2.6,1526157000
416,Tazovskiy,RU,67.47,78.7,-12.88,79,44,3.96,1526160041
417,Bukama,CD,-9.2,25.85,23.6,71,24,1.66,1526160042
418,Rawson,AR,-43.3,-65.11,10.93,60,68,2.46,1526160042
419,Upington,ZA,-28.46,21.24,10.0,66,0,2.1,1526155200
420,Stepnogorsk,KZ,52.35,71.88,3.6,86,36,5.91,1526160043
421,Madimba,CM,4.42,9.93,27.0,83,40,2.6,1526155200
422,Valley City,US,46.92,-98.0,16.94,36,1,4.1,1526158500
423,Marawi,PH,8.0,124.29,20.13,96,80,0.21,1526160044
424,Auburn Hills,US,39.8,-75.69,20.52,69,1,4.1,1526158680
425,Homer,US,59.64,-151.54,7.48,65,90,4.1,1526158380
426,Gewane,ET,10.16,40.66,24.53,41,0,2.41,1526160045
427,Aksarka,RU,66.56,67.8,-10.03,75,48,3.41,1526160045
428,Murwillumbah,AU,-28.33,153.4,12.0,76,0,0.5,1526158800
429,Rhyl,GB,53.32,-3.49,10.69,71,20,2.1,1526158200
430,Bowen,AU,-20.01,148.25,9.0,100,36,1.5,1526155200
431,Koygorodok,RU,60.44,51.01,6.18,53,0,2.11,1526160047
432,Hami,CN,42.84,93.51,17.33,40,0,2.41,1526160047
433,Abu Kamal,SY,34.45,40.92,14.9,80,20,1.11,1526160048
434,Yumen,CN,40.29,97.04,9.03,40,0,1.16,1526160048
435,Beruwala,LK,6.48,79.98,25.58,100,92,2.56,1526160048
436,Igarka,RU,67.47,86.57,-7.28,92,76,5.21,1526160049
437,Kattivakkam,IN,13.22,80.32,30.0,84,20,3.6,1526158800
438,Neepawa,CA,50.23,-99.46,19.0,25,20,5.7,1526155200
439,Derzhavinsk,KZ,51.1,66.31,9.73,60,20,5.71,1526160050
440,Champerico,MX,16.38,-93.6,36.0,32,20,4.1,1526157780
441,Morada Nova,BR,-5.1,-38.37,24.38,93,56,1.76,1526160051
442,Saurimo,AO,-9.66,20.4,19.48,88,20,0.96,1526160052
443,Nouakchott,MR,18.08,-15.98,19.23,97,0,5.66,1526160052
444,Shingu,JP,33.72,135.99,18.25,100,92,3.21,1526160053
445,Hinton,CA,53.4,-117.57,19.25,32,0,2.31,1526160053
446,Yeppoon,AU,-23.13,150.74,9.0,76,12,3.91,1526158800
447,Basco,US,40.33,-91.2,19.2,77,90,2.6,1526158500
448,Codrington,AU,-28.95,153.24,9.18,80,0,1.71,1526160055
449,Congonhas,BR,-20.5,-43.86,21.03,55,20,1.71,1526159902
450,Kasongo-Lunda,CD,-6.48,16.82,20.75,97,0,1.06,1526160056
451,Kharan,PK,28.58,65.42,17.93,32,12,1.76,1526160056
452,Los Llanos de Aridane,ES,28.66,-17.92,20.0,64,75,8.7,1526158800
453,Buffalo,US,42.89,-78.88,12.84,100,90,1.61,1526157660
454,Starkville,US,33.45,-88.82,31.0,33,1,3.1,1526159700
455,Hay River,CA,60.82,-115.79,15.0,38,75,8.2,1526155200
456,Kiunga,PG,-6.12,141.3,22.13,99,92,0.96,1526160058
457,Tautira,PF,-17.73,-149.15,30.0,66,40,5.7,1526158800
458,Qeshm,IR,26.96,56.27,28.42,50,0,3.1,1526157000
459,Jardim,BR,-21.48,-56.15,21.88,69,0,1.36,1526160060
460,Pisco,PE,-13.71,-76.2,20.0,82,0,6.2,1526158800
461,Port Hedland,AU,-20.31,118.58,19.0,24,20,4.6,1526158800
462,Camacupa,AO,-12.02,17.48,18.68,76,56,1.21,1526160061
463,Cockburn Town,TC,21.46,-71.14,26.33,97,80,8.51,1526159927
464,Zhigansk,RU,66.77,123.37,-4.28,80,24,3.26,1526160061
465,Tarauaca,BR,-8.16,-70.77,27.48,80,44,2.41,1526160062
466,Vaitape,PF,-16.52,-151.75,27.5,100,88,7.66,1526160062
467,Nchelenge,ZM,-9.35,28.74,20.5,60,0,1.81,1526160062
468,Udachnyy,RU,66.42,112.4,-9.6,79,56,1.41,1526160063
469,Alyangula,AU,-13.85,136.42,26.15,99,20,10.21,1526160064
470,Singapore,MY,1.29,103.85,27.14,94,40,1.0,1526158800
471,Ayton,CA,44.05,-80.93,16.58,58,0,2.96,1526160064
472,Renfrew,GB,55.88,-4.39,9.9,62,80,2.1,1526158200
473,Kaitangata,NZ,-46.28,169.85,0.03,69,0,0.86,1526160066
474,Correntina,BR,-13.34,-44.63,26.9,47,8,1.81,1526160066
475,Broome,GB,52.47,1.45,11.81,93,40,3.1,1526158560
476,Hirara,JP,24.8,125.28,24.18,100,0,3.16,1526160067
477,Oistins,BB,13.07,-59.53,27.0,74,20,10.3,1526158800
478,Lerik,AZ,38.78,48.42,10.21,100,40,0.31,1526158800
479,Hauterive,FR,46.09,3.45,9.0,87,68,2.1,1526158800
480,Mingyue,CN,43.11,128.91,6.48,85,0,1.06,1526160069
481,Muros,ES,42.77,-9.06,8.0,81,20,1.0,1526158800
482,Lida,BY,53.9,25.3,13.53,55,0,3.66,1526160070
483,Warragul,AU,-38.16,145.93,9.1,91,32,1.16,1526160070
484,Pimenta Bueno,BR,-11.68,-61.19,29.08,67,0,1.11,1526160071
485,Bocaiuva,BR,-17.12,-43.81,22.6,58,12,1.16,1526160071
486,Saint-Joseph,FR,43.56,6.97,16.66,77,0,1.5,1526158800
487,Eyl,SO,7.98,49.82,26.48,95,0,3.11,1526160072
488,Belaya Gora,RU,68.54,146.19,-7.38,93,0,3.76,1526160072
489,Suzhou,CN,33.65,116.96,16.18,89,0,3.91,1526160073
490,Lata,IN,30.78,78.62,12.18,81,92,1.01,1526160073
491,Kalengwa,ZM,-13.47,25.0,17.75,75,0,1.76,1526160074
492,Palaikastron,GR,35.2,26.25,19.78,96,0,11.06,1526160074
493,Cassilandia,BR,-19.11,-51.73,24.18,71,0,1.26,1526160075
494,Praia da Vitoria,PT,38.73,-27.07,16.0,72,75,2.96,1526158800
495,Omboue,GA,-1.57,9.26,26.03,100,88,3.26,1526160076
496,Dreux,FR,48.74,1.37,9.76,93,90,3.6,1526158800
497,Xique-Xique,BR,-10.82,-42.73,28.35,56,24,2.06,1526160077
498,Guarapari,BR,-20.67,-40.5,27.0,65,0,4.6,1526158800
499,Valleyview,CA,55.07,-117.28,22.33,30,8,6.71,1526160078
500,Kilinochchi,LK,9.4,80.4,26.85,100,12,6.26,1526160078
501,Ilulissat,GL,69.22,-51.1,1.0,86,92,2.1,1526158200
502,Norman Wells,CA,65.28,-126.83,16.0,31,75,10.3,1526155200
503,Shahr-e Babak,IR,30.12,55.12,11.4,45,12,3.71,1526160079
504,Ulaangom,MN,49.98,92.07,7.18,55,48,1.21,1526160080
505,Batagay,RU,67.65,134.64,-4.1,80,56,2.51,1526160080
506,Osvaldo Cruz,BR,-21.8,-50.88,25.13,55,8,3.11,1526160080
507,Kungurtug,RU,50.6,97.53,4.48,100,92,2.56,1526160081
508,Samarai,PG,-10.62,150.67,26.15,100,80,3.81,1526160081
509,Mujiayingzi,CN,42.12,118.78,8.75,92,0,1.41,1526160081
510,Lakatoro,VU,-16.11,167.42,25.6,91,8,3.66,1526160082
511,Souillac,FR,45.6,-0.6,9.55,87,0,1.5,1526158800
512,Soria,ES,41.76,-2.46,3.08,68,36,4.36,1526160083
513,Orange Walk,JM,17.93,-76.27,30.0,70,20,10.3,1526158800
514,Berlevag,NO,70.86,29.09,1.63,95,0,1.16,1526160084
515,Sehithwa,BW,-20.47,22.7,17.13,52,0,3.31,1526160085
516,Carbonia,IT,39.17,8.53,16.52,93,0,2.1,1526158500
517,Vyartsilya,RU,62.18,30.69,12.5,75,32,1.26,1526160086
518,Capitan Bado,PY,-23.27,-55.53,20.1,74,0,1.16,1526160086
519,Pacific Grove,US,36.62,-121.92,18.24,59,90,3.1,1526158860
520,Porosozero,RU,62.72,32.71,8.73,73,0,0.76,1526160087
521,Martapura,ID,-3.41,114.85,26.53,93,68,2.31,1526160088
522,Narrabri,AU,-30.33,149.78,3.03,87,0,1.76,1526160088
523,Husavik,CA,50.56,-96.99,16.28,59,0,4.66,1526160089
524,Roald,NO,62.58,6.12,8.86,100,20,1.5,1526158200
525,Libertador General San Martin,AR,-23.81,-64.79,20.0,68,75,2.1,1526158800
526,Rafaela,AR,-31.25,-61.49,18.23,82,0,1.51,1526160089
527,Perth,GB,56.4,-3.43,8.96,81,0,3.1,1526158200
528,Salinas,US,36.67,-121.66,18.24,55,1,7.7,1526158860
529,Muravlenko,RU,63.79,74.5,-1.93,95,76,5.66,1526160090
530,Cururupu,BR,-1.82,-44.87,26.48,87,68,2.56,1526160091
531,San Ignacio,CL,-36.8,-72.03,18.0,63,0,0.5,1526158800
532,Carutapera,BR,-1.2,-46.02,26.28,90,48,2.56,1526160093
533,Dunedin,NZ,-45.87,170.5,0.28,86,20,1.21,1526159862
534,Touros,BR,-5.2,-35.46,26.93,84,48,5.21,1526160093
535,Mangit,UZ,40.6,70.96,20.0,52,24,3.1,1526157000
536,Savonlinna,FI,61.87,28.88,10.0,76,0,0.86,1526158200
537,Muisne,EC,0.61,-80.02,25.35,95,88,2.16,1526160094
538,Fastiv,UA,50.08,29.92,14.52,76,40,2.0,1526157000
539,Coron,FR,47.13,-0.65,9.0,93,75,2.6,1526158800
540,Ikalamavony,MG,-21.17,46.6,11.33,91,32,1.11,1526160095
541,Bela,PK,26.23,66.31,24.25,43,0,2.31,1526160095
542,Barreirinhas,BR,-2.75,-42.83,23.1,99,92,3.01,1526160096
543,Kazerun,IR,29.62,51.65,15.58,58,0,0.96,1526160096
544,Cairns,AU,-16.92,145.77,22.0,68,20,5.1,1526158800
545,Baherden,TM,38.44,57.43,16.6,93,80,1.56,1526160096
546,Mareeba,AU,-16.99,145.42,22.0,68,20,5.1,1526158800
547,Sept-Iles,CA,50.2,-66.38,5.0,56,20,7.7,1526155200
548,Marsh Harbour,BS,26.54,-77.06,24.33,100,92,2.96,1526160098
549,Zigong,CN,29.34,104.78,16.73,80,36,1.41,1526160098
550,Pindwara,IN,24.79,73.05,24.1,57,32,1.76,1526160098
551,Tapejara,BR,-23.73,-52.87,20.08,62,0,2.71,1526160099
552,Nampula,MZ,-15.12,39.26,22.0,94,0,1.11,1526155200
553,Komsomolets,RU,52.77,41.29,7.6,84,0,1.41,1526160099
554,Magadan,RU,59.56,150.8,2.0,59,0,3.0,1526155200
555,Belmonte,PT,40.36,-7.35,7.43,61,0,3.71,1526160100
556,Buchanan,LR,5.88,-10.05,27.0,83,20,2.1,1526155200
557,Wembley,GB,51.55,-0.3,10.0,93,92,2.1,1526158200
558,Mwinilunga,ZM,-11.73,24.43,17.18,82,0,1.01,1526160102
559,Gizo,IL,31.8,34.94,20.68,77,20,2.6,1526158200
560,Concordia,AR,-31.4,-58.02,21.0,60,20,2.1,1526155200
561,Palmer,AU,-34.85,139.16,13.0,82,40,3.6,1526158800
562,Manadhoo,MV,5.77,73.38,28.23,100,64,6.36,1526160104
563,Sosnovo-Ozerskoye,RU,52.53,111.54,4.48,85,8,3.01,1526160104
564,Ketchikan,US,55.34,-131.65,13.15,76,90,3.6,1526158380
565,Great Falls,US,47.5,-111.29,9.86,57,40,2.1,1526156880
566,Tianpeng,CN,28.88,112.34,18.23,99,44,1.31,1526160105
567,Ingham,AU,-18.65,146.16,18.65,100,0,5.36,1526160105
568,Zaykovo,RU,57.56,62.76,0.48,54,0,3.46,1526160106
569,Uberaba,BR,-19.75,-47.94,25.63,55,44,1.46,1526160106
570,Pochutla,MX,15.74,-96.47,30.9,98,40,5.1,1526157900
571,Veinticinco de Mayo,AR,-27.38,-54.75,18.18,77,0,1.26,1526160107
572,Balkanabat,TM,39.51,54.36,17.23,60,0,0.91,1526160107
573,Kilis,TR,36.72,37.12,14.0,93,75,3.46,1526158200
574,Cabedelo,BR,-6.97,-34.84,25.0,88,0,3.6,1526158800
575,Florence,US,34.8,-87.68,31.22,29,1,2.1,1526158560
576,Puerto Colombia,CO,10.99,-74.96,31.0,70,75,4.1,1526158800
577,Pangnirtung,CA,66.15,-65.72,-5.63,90,80,2.21,1526160109
578,Ilo,PE,-17.65,-71.34,20.0,79,0,1.61,1526160109
579,Richards Bay,ZA,-28.77,32.06,19.98,84,76,4.76,1526160110
580,Kisangani,CD,0.52,25.21,22.58,97,0,1.16,1526160110
581,Kindu,CD,-2.95,25.92,22.88,92,24,0.61,1526160110
582,Sobolevo,RU,54.43,31.9,18.98,37,68,6.41,1526160111
583,Jijiga,ET,9.35,42.8,13.68,80,0,1.11,1526160111
584,Taluya,PH,5.81,125.18,22.48,97,24,1.11,1526160112
585,Manggar,ID,-2.88,108.27,27.08,90,24,3.66,1526160112
586,Palana,RU,59.08,159.95,2.5,78,24,1.66,1526160112
587,Linxia,CN,35.6,103.21,0.6,62,0,1.16,1526160113
588,Oktyabrskoye,RU,56.73,85.44,5.58,98,88,1.66,1526160114
589,Charlestown,US,41.38,-71.64,12.0,87,90,3.6,1526158800
590,Taikang,CN,46.86,124.44,7.93,67,0,3.91,1526160114
591,Namatanai,PG,-3.66,152.44,26.33,100,56,1.81,1526160115
592,Bara,NG,10.41,10.6,26.08,69,24,4.56,1526160115
593,Itarema,BR,-2.92,-39.92,26.03,92,80,3.76,1526160116
594,Adre,TD,13.47,22.2,24.78,35,8,3.06,1526160116
595,Maku,IR,39.29,44.45,12.0,71,75,0.96,1526154600
596,Vagur,FO,61.47,-6.81,8.13,98,8,6.01,1526160117
597,Kichmengskiy Gorodok,RU,59.99,45.81,8.93,81,0,1.11,1526160118
598,Srednekolymsk,RU,67.46,153.71,-1.25,82,0,0.71,1526160118
599,Milkovo,BG,41.53,24.68,16.21,100,76,1.5,1526158800
600,Firovo,RU,57.48,33.7,14.38,40,8,3.81,1526160119
601,Waterloo,CA,43.47,-80.52,13.82,44,1,1.0,1526155200
602,Vardo,US,39.62,-77.74,32.19,48,75,4.1,1526158500
603,Urambo,TZ,-5.07,32.07,23.18,66,56,1.51,1526160120
604,Nhulunbuy,AU,-12.18,136.78,26.0,61,40,6.7,1526158800
605,Diego de Almagro,CL,-26.39,-70.05,18.65,74,0,1.51,1526160120
606,Havelock,US,34.88,-76.9,29.19,28,5,4.6,1526158680
607,Puerto Leguizamo,CO,-0.19,-74.78,24.18,94,92,1.66,1526160121
608,Pakokku,MM,21.33,95.09,20.25,99,80,1.46,1526160122
609,Katobu,ID,-4.94,122.53,24.88,100,80,1.36,1526160122
610,Kingman,US,35.19,-114.05,28.5,19,40,9.3,1526158560
611,Espoo,FI,60.22,24.66,9.0,70,0,0.5,1526158200
612,Ridgecrest,US,35.62,-117.67,26.0,14,1,4.6,1526158560
613,Alugan,PH,12.22,125.48,24.73,100,64,1.91,1526160124
614,Mattru,SL,7.62,-11.83,27.18,76,68,2.81,1526160124
615,Araxa,BR,-19.59,-46.94,22.68,52,24,1.86,1526160006
616,Fort Frances,CA,48.61,-93.4,20.0,20,1,2.1,1526158500
617,Zapolyarnyy,RU,69.43,30.82,6.0,81,8,2.6,1526158200
618,Visby,SE,57.64,18.3,11.0,76,0,3.6,1526158200
619,Cedar City,US,37.68,-113.06,18.0,18,1,3.6,1526158380
620,Seoul,KR,37.57,126.98,13.19,100,90,0.5,1526158680
621,Hermon,GB,51.96,-4.61,8.0,81,0,3.6,1526158200
622,Sioux Lookout,CA,50.1,-91.92,17.63,23,20,2.6,1526155200
623,Humaita,AR,-24.93,-65.37,19.13,63,75,2.1,1526158800
624,Conneaut,US,41.95,-80.55,9.38,87,90,4.1,1526158260
625,Skorping,DK,56.84,9.89,10.98,60,0,3.31,1526160129
626,Shetpe,KZ,44.14,52.16,13.25,63,12,2.66,1526160129
627,Beaverlodge,CA,55.21,-119.43,22.0,24,75,8.2,1526155200
628,Gohad,IN,26.42,78.44,24.98,67,32,0.96,1526160130
629,Jaral del Progreso,MX,20.37,-101.06,28.0,28,75,1.5,1526157900
630,Kalemie,CD,-5.95,29.2,24.35,100,0,3.76,1526160131
631,Kalmunai,LK,7.42,81.82,22.93,100,20,1.21,1526160132
632,Juneau,US,58.3,-134.42,12.0,81,75,5.7,1526158560
633,Morros,BR,-2.87,-44.04,24.0,94,75,1.0,1526158800
634,Avera,US,33.19,-82.53,31.79,32,1,3.1,1526158500
635,The Valley,AI,18.22,-63.06,28.64,61,20,7.2,1526158800
636,Hwange,ZW,-18.35,26.5,16.75,39,0,3.11,1526160134
637,Tigil,RU,57.8,158.67,3.15,84,24,3.86,1526160134
638,Knysna,ZA,-34.04,23.05,12.0,93,0,1.5,1526155200
639,Tortoli,IT,39.93,9.66,17.0,88,40,1.91,1526158500
640,Ryki,PL,51.63,21.94,14.35,50,0,3.06,1526160136
641,Ixtapa,MX,20.71,-105.21,30.0,74,20,7.2,1526157780
642,Shaunavon,CA,49.65,-108.41,15.68,79,0,1.86,1526160137
643,Aranos,NA,-24.14,19.11,13.35,37,0,2.76,1526160137
644,Nova Varos,RS,43.46,19.82,11.0,100,20,3.6,1526158800
645,Tegh,AZ,39.56,46.48,5.73,98,92,1.06,1526160138
646,Solnechnyy,RU,50.72,136.64,15.98,38,20,2.86,1526160139
647,Vengerovo,RU,55.68,76.74,5.73,97,92,2.56,1526160139
648,San Andres,PH,13.32,122.68,27.68,100,32,2.06,1526159664
649,Beringovskiy,RU,63.05,179.32,-2.63,100,20,5.66,1526160139
650,Pfullingen,DE,48.47,9.23,18.38,52,0,0.5,1526158200
651,Fallon,US,46.84,-105.12,11.0,71,90,5.1,1526158560
652,Haapiti,PF,-17.57,-149.87,30.0,66,40,5.7,1526158800
653,Bogorodskoye,RU,52.37,140.44,4.38,78,0,1.31,1526160142
654,Mogwase,ZA,-25.28,27.22,13.15,39,0,2.46,1526160142
655,Pozo Colorado,PY,-23.49,-58.8,21.5,71,0,1.51,1526160143
656,Moerai,PF,-22.43,-151.33,22.38,100,100,9.11,1526160143
657,Khani,GE,41.96,42.96,14.0,87,90,2.1,1526157000
658,Salym,RU,60.06,71.48,2.23,77,0,4.66,1526160144
659,Axim,GH,4.87,-2.24,26.68,100,80,5.66,1526160144
660,Hualmay,PE,-11.1,-77.61,21.38,82,0,2.56,1526160144
661,Vaasa,FI,63.1,21.62,11.0,71,0,0.91,1526158200
662,Sangar,RU,63.92,127.47,-0.18,60,68,3.86,1526160145
663,Beeskow,DE,52.17,14.25,17.0,82,0,3.1,1526158200
664,Challans,FR,46.85,-1.88,8.01,93,24,3.1,1526158800
665,Presidente Dutra,BR,-11.3,-41.99,26.4,50,32,2.16,1526160146
666,Vrangel,RU,42.73,133.08,7.18,88,76,3.21,1526160147
667,Mapiripan,CO,2.89,-72.13,21.93,100,92,2.06,1526160147
668,Tuy Hoa,VN,13.08,109.3,24.18,99,8,1.31,1526160148
669,Togur,RU,58.36,82.83,3.85,72,36,4.01,1526160148
670,San Ramon,NI,12.92,-85.84,23.0,88,75,2.1,1526155200
671,San Juan,PH,14.6,121.03,27.0,94,20,2.1,1526155200
672,Lavumisa,ZA,-27.31,31.88,16.68,76,24,2.96,1526160150
673,Shar,NG,7.3,8.73,26.73,80,32,4.56,1526160151
674,Galeana,MX,24.83,-100.08,27.78,30,0,1.61,1526160151
675,Buala,SB,-8.15,159.59,27.98,88,92,2.11,1526160151
676,Botwood,CA,49.14,-55.34,8.0,33,40,8.7,1526155200
677,Nioki,CD,-2.72,17.69,23.88,92,32,1.16,1526160152
678,Mugumu,TZ,-1.84,34.67,15.43,98,24,1.36,1526160152
679,Warman,CA,52.32,-106.58,19.0,32,75,8.2,1526155200
680,Santa Rosa,AR,-36.62,-64.29,18.38,52,0,3.01,1526160154
681,Bertoua,CM,4.58,13.68,18.98,97,64,2.06,1526160155
682,Zhangye,CN,38.94,100.46,8.6,45,0,3.51,1526160155
683,Auki,NG,12.18,6.51,28.78,50,32,4.11,1526160156
684,Hovd,NO,63.83,10.7,11.92,67,0,1.0,1526158200
685,Nenjiang,CN,49.17,125.23,6.0,71,0,4.81,1526160156
686,Orlovskiy,RU,46.87,42.05,10.4,63,64,2.56,1526160156
687,Filingue,NE,14.35,3.32,31.78,21,20,4.76,1526160157
688,Ahipara,NZ,-35.17,173.16,17.38,100,92,4.36,1526160157
689,Kailua,US,21.39,-157.74,27.25,74,1,4.6,1526158620
690,Vanavara,RU,60.35,102.28,3.33,58,88,3.96,1526160158
691,Bainbridge,US,30.9,-84.58,35.0,34,1,2.1,1526158500
692,Jinchang,CN,38.52,102.19,5.6,49,0,1.16,1526160158
693,Pangkalanbuun,ID,-2.68,111.62,23.43,95,32,1.46,1526160159
694,Mongo,CF,4.83,22.92,23.08,92,64,1.21,1526160159
695,Ust-Tsilma,RU,65.44,52.15,1.73,90,92,1.31,1526160160
696,Petauke,ZM,-14.25,31.33,23.33,50,76,3.36,1526160160
697,Sao Gabriel da Cachoeira,BR,-0.13,-67.09,26.4,92,48,0.41,1526160048
698,Santa Cruz,US,36.97,-122.03,20.89,72,75,4.6,1526158860
699,Malartic,CA,48.14,-78.13,16.0,25,20,3.1,1526157720
700,Chulym,RU,55.09,80.97,1.13,84,8,1.96,1526160162
701,Gat,SN,14.69,-16.54,26.0,57,0,3.1,1526158800
702,Luena,AO,-11.78,19.91,18.33,78,24,1.16,1526160163
703,Miraflores,CO,5.2,-73.14,13.93,95,88,0.86,1526160164
704,Kampot,KH,10.62,104.18,22.83,98,56,1.31,1526160165
705,Biak,ID,-0.91,122.88,24.18,100,24,1.41,1526160165
706,Alvaraes,BR,-3.22,-64.8,32.0,62,40,1.5,1526158800
707,Elliot Lake,CA,46.37,-82.65,15.0,69,1,5.7,1526155200
708,Iralaya,HN,15.0,-83.23,32.0,59,20,3.1,1526158800
709,Teya,MX,21.05,-89.07,36.0,47,75,2.1,1526157900
710,El Doncello,CO,1.68,-75.28,22.58,93,92,0.86,1526160167
711,Kilcormac,IE,53.18,-7.73,8.4,68,8,3.26,1526160167
712,Mahajanga,MG,-15.72,46.32,26.0,88,20,1.0,1526155200
713,Minamiashigara,JP,35.32,139.1,17.33,82,75,1.41,1526158560
714,Sambava,MG,-14.27,50.17,24.13,100,92,5.71,1526160169
715,College,US,64.86,-147.8,12.33,27,90,3.1,1526158680
716,Nioro,GM,13.79,-15.05,29.35,50,0,2.21,1526160169
717,Capitao Poco,BR,-1.75,-47.06,26.33,85,80,3.21,1526160170
718,Itupiranga,BR,-5.13,-49.33,26.0,88,20,1.5,1526158800
719,Kyzyl-Suu,KG,42.34,78.0,10.08,99,92,2.01,1526160170
720,Carahue,CL,-38.71,-73.16,14.1,90,92,1.86,1526160171
721,Mamallapuram,IN,12.63,80.17,30.0,84,20,3.6,1526158800
722,Verkhoyansk,RU,67.55,133.39,-5.6,85,80,2.26,1526160171
723,Abay,KZ,49.63,72.87,1.0,86,0,1.0,1526157000
724,Kommunisticheskiy,RU,61.68,64.48,-1.13,73,44,2.66,1526160172
725,Edd,ER,13.93,41.69,25.43,47,0,1.21,1526160173
726,Tipitapa,NI,12.2,-86.1,32.0,55,40,5.1,1526158800
727,Ustye,RU,58.76,27.79,14.03,60,0,4.71,1526160174
728,Byron Bay,AU,-28.65,153.62,12.0,76,0,0.5,1526158800
729,Sulangan,PH,11.14,123.72,27.85,100,32,1.51,1526160174
730,Simpang,MY,4.82,100.71,25.0,94,75,2.1,1526155200
731,Curitiba,BR,-25.43,-49.27,19.03,82,20,3.1,1526158800
732,Keti Bandar,PK,24.14,67.45,28.88,97,0,7.16,1526160176
733,Guatire,VE,10.47,-66.54,29.0,66,20,2.6,1526158800
734,Apatou,SR,5.16,-54.34,24.83,88,80,2.21,1526160176
735,Chumikan,RU,54.72,135.31,-0.5,98,64,1.66,1526160177
736,Xiaoweizhai,CN,26.23,107.51,15.78,97,64,1.06,1526160178
737,Arklow,IE,52.79,-6.14,7.0,87,40,3.6,1526158800
738,Nabire,ID,-3.36,135.5,19.15,97,8,0.51,1526160178
739,Sarkand,KZ,45.41,79.91,15.53,77,80,5.61,1526160179
740,Ziway,ET,7.93,38.72,12.93,62,8,1.91,1526160179
741,Malpe,IN,13.35,74.72,26.0,88,20,1.06,1526158800
742,Sicuani,PE,-14.27,-71.23,12.13,32,80,1.76,1526160180
743,Kudahuvadhoo,MV,2.67,72.89,29.28,100,64,4.46,1526160181
744,Kristiansund,NO,63.12,7.73,8.75,100,0,1.0,1526158200
745,Giddalur,IN,15.38,78.93,22.48,94,0,1.86,1526160181
746,Barstow,US,31.46,-103.39,38.0,6,1,6.2,1526158380
747,Nuevo Progreso,US,26.05,-97.95,32.58,43,40,7.7,1526158020
748,Pasni,PK,25.26,63.48,28.25,96,0,5.41,1526160182
749,Kirkwall,GB,58.98,-2.96,9.0,93,75,4.6,1526158200
750,Asyut,EG,27.18,31.19,24.0,36,0,2.1,1526158800
751,Strezhevoy,RU,60.73,77.6,2.0,69,0,5.0,1526157000
752,Marienburg,DE,52.12,9.98,18.03,72,0,3.1,1526158200
753,Pokhara,NP,28.21,83.99,14.13,67,92,1.26,1526160183
754,Tunceli,TR,39.11,39.55,11.98,93,75,0.91,1526158200
755,Las Vegas,US,36.17,-115.15,23.64,9,1,7.7,1526157300
756,Orlik,RU,52.51,99.83,0.15,98,80,0.96,1526160185
757,Kloulklubed,PW,7.04,134.26,25.97,94,75,2.6,1526158380
758,Dibulla,CO,11.27,-73.31,35.0,44,40,6.2,1526158800
759,Saint-Paul,FR,45.22,1.9,6.96,100,75,1.0,1526158800
760,Dalbandin,PK,28.9,64.41,19.68,25,0,3.06,1526160186
761,Kuzhener,RU,56.81,48.92,9.03,48,0,3.76,1526160186
762,Sao Teotonio,PT,37.51,-8.71,14.35,96,0,10.56,1526160186
763,Sisophon,KH,13.59,102.97,24.18,100,32,1.31,1526160187
764,Tarbert,GB,55.86,-5.42,10.01,75,44,4.6,1526158200
765,Skibbereen,IE,51.55,-9.27,7.0,87,40,2.6,1526158800
766,Sisimiut,GL,66.94,-53.67,3.83,92,80,1.61,1526160187
767,Isla Mujeres,MX,21.23,-86.73,28.0,78,90,4.6,1526157960
768,Lincoln,GB,53.23,-0.54,10.67,93,75,3.1,1526158200
769,Benghazi,LY,32.12,20.07,17.0,88,40,3.6,1526158800
770,Mankapur,IN,28.32,79.86,26.43,66,48,2.76,1526160189
771,Dharchula,IN,29.85,80.53,6.23,85,48,0.96,1526160189
772,Ojinaga,US,29.56,-104.41,34.25,13,100,2.71,1526160189
773,Tucumcari,US,35.17,-103.73,36.0,8,1,12.9,1526158380
774,Motala,SE,58.54,15.04,14.34,87,44,2.6,1526158200
775,San Quintin,PH,17.54,120.52,21.85,87,8,1.91,1526160190
776,Buraydah,SA,26.33,43.97,27.0,28,0,5.1,1526155200
777,Marzuq,YE,14.4,46.47,15.4,85,0,1.11,1526160191
778,Sasunik,AM,40.25,44.34,11.24,87,90,1.0,1526157000
779,Port Macquarie,AU,-31.43,152.91,15.0,54,75,5.7,1526158800
780,Shelburne,CA,44.08,-80.2,15.23,29,1,3.1,1526155200
781,Pozoblanco,ES,38.38,-4.85,15.0,51,0,2.6,1526158800
782,Charlottetown,CA,46.23,-63.13,10.0,37,75,4.6,1526155200
783,Riyadh,SA,24.63,46.72,36.0,7,0,8.7,1526155200
784,Meihekou,CN,42.54,125.69,8.88,85,0,2.91,1526160192
785,Ikon-Khalk,RU,44.32,41.92,8.63,89,12,3.06,1526160193
786,Upata,VE,8.02,-62.41,26.28,75,76,3.71,1526160193
787,Marsa Matruh,EG,31.35,27.25,19.0,82,40,3.6,1526158800
788,Jamkhed,IN,18.74,75.31,26.83,44,8,3.61,1526160194
789,Lazaro Cardenas,MX,28.39,-105.62,33.0,18,75,6.2,1526158320
790,Mobaye,CF,4.33,21.18,20.48,98,20,1.46,1526160195
791,Iranduba,BR,-3.28,-60.19,30.85,73,36,1.41,1526160196
792,Vilyuysk,RU,63.75,121.63,-3.53,71,0,1.96,1526160196
793,Piripiri,BR,-4.27,-41.78,25.53,91,8,1.16,1526160197
794,Feldkirchen an der Donau,AT,48.34,14.05,17.0,77,12,3.1,1526158200
795,Half Moon Bay,US,37.46,-122.43,23.68,38,20,5.7,1526158560
796,San Giovanni in Fiore,IT,39.25,16.7,18.0,88,20,3.6,1526158200
797,Dicabisagan,PH,17.08,122.42,25.08,100,92,0.31,1526160198
798,Oxchuc,MX,16.78,-92.34,22.13,74,20,1.06,1526160198
799,Okha,RU,53.59,142.95,0.73,93,0,6.16,1526160199
800,Vestmanna,FO,62.16,-7.17,7.0,87,0,2.1,1526158200
801,Tura,IN,25.52,90.21,19.58,92,0,0.86,1526160199
802,Moussoro,TD,13.64,16.49,27.33,24,8,3.21,1526160200
803,Longhua,CN,29.21,106.21,18.0,93,0,3.0,1526155200
804,Caraballeda,VE,10.61,-66.85,29.0,66,20,2.6,1526158800
805,Halifax,CA,44.65,-63.58,11.0,40,75,6.7,1526155200
806,Kitoy,RU,52.6,103.9,6.0,56,0,3.0,1526157000
807,Mazyr,BY,52.05,29.27,16.68,45,24,5.56,1526160201
808,Rafai,CF,4.95,23.92,21.08,100,80,1.41,1526160202
809,Turinsk,RU,58.04,63.7,1.25,56,8,3.06,1526160202
810,Spokane,US,47.66,-117.42,22.76,27,1,2.1,1526158560
811,Margate,AU,-43.03,147.26,10.0,87,40,4.1,1526158800
812,Komyshuvakha,UA,48.64,37.46,12.03,38,80,3.36,1526160203
813,Leh,IN,34.16,77.58,-9.5,88,80,0.31,1526160204
814,Mansa,IN,23.43,72.66,31.0,58,0,2.6,1526157000
815,Atagay,RU,55.1,99.39,5.93,96,68,2.31,1526160204
816,Monticello,US,45.31,-93.79,15.99,33,1,2.1,1526159760
817,Goure,NE,13.98,10.27,31.4,55,56,1.16,1526160205
818,Lichuan,CN,30.3,108.94,8.48,85,32,0.26,1526160205
819,Azogues,EC,-2.74,-78.85,19.0,55,75,2.6,1526158800
820,Nieuw Amsterdam,SR,5.88,-55.08,26.57,88,40,3.1,1526155200
821,Zmeinogorsk,RU,51.15,82.2,5.28,80,0,1.16,1526160206
822,Port Augusta,AU,-32.49,137.76,14.0,76,90,4.6,1526158800
823,Odessa,US,31.85,-102.37,36.94,11,56,3.6,1526157300
824,Seydi,NE,13.34,7.75,30.4,42,76,4.36,1526160207
825,Senanga,ZM,-16.1,23.3,20.38,53,12,3.76,1526160208
826,Dhidhdhoo,MV,6.88,73.1,28.35,100,36,7.06,1526160208
827,Te Anau,NZ,-45.41,167.72,-2.65,83,0,1.06,1526160208
828,Gladstone,AU,-23.84,151.26,10.23,100,12,3.71,1526160209
829,Dori,BF,14.03,-0.03,31.35,28,88,3.56,1526160209
830,Tirodi,IN,21.68,79.73,27.03,51,8,3.01,1526160210
831,Touho,NC,-20.78,165.23,21.35,98,100,1.66,1526160210
832,Bahia Blanca,AR,-38.72,-62.27,14.18,72,12,2.56,1526160186
833,Tbilisi,GE,41.69,44.8,14.0,87,90,2.6,1526157000
834,Synya,RU,65.37,58.04,-1.48,86,44,1.41,1526160211
835,San Juan Bautista,PY,-26.67,-57.15,20.48,69,0,1.46,1526160211
836,Parakai,NZ,-36.66,174.44,18.0,93,88,1.5,1526158800
837,San Jose,PH,15.79,120.99,22.1,93,24,0.96,1526160213
838,Stupino,RU,54.89,38.08,15.0,47,0,3.0,1526157000
839,Beyneu,KZ,45.32,55.19,19.58,46,0,3.31,1526160214
840,Lardos,GR,36.09,28.02,20.0,77,20,5.1,1526158200
841,Waingapu,ID,-9.65,120.26,24.65,80,20,4.36,1526160215
842,Atar,MR,20.52,-13.05,23.4,23,0,1.41,1526160215
843,Thibodaux,US,29.8,-90.82,29.25,66,75,7.2,1526158560
844,Yushan,CN,31.68,118.49,17.0,100,20,1.0,1526155200
845,Ballina,IE,54.11,-9.15,6.0,81,40,2.6,1526157000
846,Surenavan,AM,39.75,44.8,12.36,87,90,1.0,1526157000
847,Dandong,CN,40.12,124.37,5.78,89,36,1.16,1526160217
848,Kiama,AU,-34.67,150.86,13.0,62,90,6.7,1526155200
849,Yuzawa,JP,39.05,140.54,12.1,68,92,0.96,1526160218
850,Sayyan,YE,15.17,44.32,12.75,41,0,1.76,1526160218
851,Chepareria,KE,1.32,35.2,12.35,94,20,0.61,1526160219
852,Santa catarina de Tepehuanes,MX,25.34,-105.72,24.23,30,92,1.46,1526160219
853,Nowa Sol,PL,51.8,15.72,15.0,93,0,1.5,1526158800
854,Naryan-Mar,RU,67.67,53.09,-0.6,90,48,5.31,1526160220
855,Takaka,NZ,-40.86,172.81,11.43,100,88,5.66,1526160220
856,Mont-de-Marsan,FR,43.89,-0.5,9.3,81,0,2.1,1526158800
857,Padang,ID,-0.92,100.36,27.53,100,88,1.86,1526160221
858,Tateyama,JP,36.66,137.31,10.48,81,48,0.86,1526160221
859,Krasnoye,RU,44.87,39.46,14.0,67,40,1.0,1526157000
860,Ukiah,US,39.15,-123.21,28.0,18,1,2.1,1526158560
